% program   : RTKLIB ver.2.4.3
% inp file  : piksi/piksi.obs
% inp file  : swisstopo/ETH2260L00.20o
% inp file  : swisstopo/ETH2260L00.20n
% inp file  : swisstopo/ETH2260L00.20g
% inp file  : swisstopo/ETH2260L00.20c
% inp file  : swisstopo/ETH2260L00.20l
% obs start : 2020/09/16 11:52:51.0 GPST (week2123 301971.0s)
% obs end   : 2020/09/16 11:59:50.0 GPST (week2123 302390.0s)
% pos mode  : static
% freqs     : L1+L2+L5
% solution  : combined
% elev mask : 15.0 deg
% dynamics  : off
% tidecorr  : off
% ionos opt : broadcast
% tropo opt : saastamoinen
% ephemeris : broadcast
% navi sys  : gps glonass galileo qzss beidou sbas
% amb res   : continuous
% amb glo   : on
% val thres : 3.0
% antenna1  :                       ( 0.0000  0.0000  0.0000)
% antenna2  :                       ( 0.0000  0.0000  0.0000)
% ref pos   : 47.407178467   8.510609623  594.8508
%
% (lat/lon/height=WGS84/ellipsoidal,Q=1:fix,2:float,3:sbas,4:dgps,5:single,6:ppp,ns=# of satellites)
%  GPST                  latitude(deg) longitude(deg)  height(m)   Q  ns   sdn(m)   sde(m)   sdu(m)  sdne(m)  sdeu(m)  sdun(m) age(s)  ratio
2020/09/16 11:52:51.000   47.409360786    8.497175526   571.0234   1  10   0.0004   0.0005   0.0011   0.0003  -0.0004  -0.0005   0.00   23.0
2020/09/16 11:52:52.000   47.409360786    8.497175526   571.0233   1  10   0.0004   0.0005   0.0011   0.0003  -0.0004  -0.0005   0.00   22.9
2020/09/16 11:52:53.000   47.409360786    8.497175526   571.0233   1  10   0.0004   0.0005   0.0011   0.0003  -0.0004  -0.0005   0.00   22.8
2020/09/16 11:52:54.000   47.409360786    8.497175526   571.0233   1  10   0.0004   0.0005   0.0011   0.0003  -0.0004  -0.0005   0.00   22.7
2020/09/16 11:52:55.000   47.409360786    8.497175526   571.0233   1  10   0.0004   0.0005   0.0011   0.0003  -0.0004  -0.0005   0.00   22.6
2020/09/16 11:52:56.000   47.409360786    8.497175526   571.0233   1  10   0.0004   0.0005   0.0011   0.0003  -0.0004  -0.0005   0.00   22.4
2020/09/16 11:52:57.000   47.409360785    8.497175526   571.0233   1  10   0.0004   0.0005   0.0011   0.0003  -0.0004  -0.0005   0.00   22.4
2020/09/16 11:52:58.000   47.409360785    8.497175526   571.0233   1  10   0.0004   0.0005   0.0011   0.0003  -0.0004  -0.0005   0.00   22.3
2020/09/16 11:52:59.000   47.409360785    8.497175526   571.0233   1  10   0.0004   0.0005   0.0011   0.0003  -0.0004  -0.0005   0.00   22.1
2020/09/16 11:53:00.000   47.409360785    8.497175526   571.0233   1  10   0.0004   0.0005   0.0011   0.0003  -0.0004  -0.0005   0.00   22.0
2020/09/16 11:53:01.000   47.409360785    8.497175526   571.0232   1  10   0.0004   0.0005   0.0011   0.0003  -0.0004  -0.0005   0.00   21.9
2020/09/16 11:53:02.000   47.409360785    8.497175526   571.0232   1  10   0.0004   0.0005   0.0011   0.0003  -0.0004  -0.0005   0.00   21.8
2020/09/16 11:53:03.000   47.409360785    8.497175526   571.0232   1  10   0.0004   0.0005   0.0011   0.0003  -0.0004  -0.0005   0.00   21.7
2020/09/16 11:53:04.000   47.409360785    8.497175527   571.0232   1  10   0.0004   0.0005   0.0011   0.0003  -0.0004  -0.0005   0.00   21.6
2020/09/16 11:53:05.000   47.409360785    8.497175527   571.0232   1  10   0.0004   0.0005   0.0011   0.0003  -0.0004  -0.0005   0.00   21.4
2020/09/16 11:53:06.000   47.409360785    8.497175527   571.0232   1  10   0.0004   0.0005   0.0011   0.0003  -0.0004  -0.0005   0.00   21.3
2020/09/16 11:53:07.000   47.409360785    8.497175527   571.0232   1  10   0.0004   0.0005   0.0011   0.0003  -0.0004  -0.0005   0.00   21.2
2020/09/16 11:53:08.000   47.409360785    8.497175527   571.0232   1  10   0.0004   0.0005   0.0011   0.0003  -0.0004  -0.0005   0.00   21.0
2020/09/16 11:53:09.000   47.409360785    8.497175527   571.0232   1  10   0.0004   0.0005   0.0011   0.0003  -0.0004  -0.0005   0.00   20.8
2020/09/16 11:53:10.000   47.409360785    8.497175527   571.0232   1  10   0.0004   0.0005   0.0011   0.0003  -0.0004  -0.0005   0.00   20.7
2020/09/16 11:53:11.000   47.409360785    8.497175527   571.0232   1  10   0.0004   0.0005   0.0011   0.0003  -0.0004  -0.0005   0.00   20.6
2020/09/16 11:53:12.000   47.409360785    8.497175527   571.0232   1  10   0.0004   0.0005   0.0011   0.0003  -0.0004  -0.0005   0.00   20.5
2020/09/16 11:53:13.000   47.409360785    8.497175527   571.0232   1  10   0.0004   0.0005   0.0011   0.0003  -0.0004  -0.0005   0.00   20.3
2020/09/16 11:53:14.000   47.409360785    8.497175527   571.0232   1  10   0.0004   0.0005   0.0011   0.0003  -0.0004  -0.0005   0.00   20.2
2020/09/16 11:53:15.000   47.409360785    8.497175527   571.0232   1  10   0.0004   0.0005   0.0011   0.0003  -0.0004  -0.0005   0.00   20.1
2020/09/16 11:53:16.000   47.409360784    8.497175527   571.0232   1  10   0.0004   0.0005   0.0011   0.0003  -0.0004  -0.0005   0.00   20.0
2020/09/16 11:53:17.000   47.409360784    8.497175527   571.0232   1  10   0.0004   0.0005   0.0011   0.0003  -0.0004  -0.0005   0.00   19.8
2020/09/16 11:53:18.000   47.409360784    8.497175527   571.0232   1  10   0.0004   0.0005   0.0011   0.0003  -0.0004  -0.0005   0.00   19.7
2020/09/16 11:53:19.000   47.409360784    8.497175527   571.0232   1  10   0.0004   0.0005   0.0011   0.0003  -0.0004  -0.0005   0.00   19.6
2020/09/16 11:53:20.000   47.409360789    8.497175529   571.0223   1  10   0.0004   0.0004   0.0010   0.0003  -0.0004  -0.0005   0.00    3.0
2020/09/16 11:53:21.000   47.409360789    8.497175530   571.0223   1  10   0.0004   0.0004   0.0010   0.0003  -0.0004  -0.0005   0.00    3.1
2020/09/16 11:53:22.000   47.409360789    8.497175529   571.0223   1  10   0.0004   0.0004   0.0010   0.0003  -0.0004  -0.0005   0.00    3.2
2020/09/16 11:53:23.000   47.409360789    8.497175530   571.0223   1  10   0.0004   0.0004   0.0010   0.0003  -0.0004  -0.0005   0.00    3.2
2020/09/16 11:53:24.000   47.409360789    8.497175529   571.0223   1  10   0.0004   0.0004   0.0010   0.0003  -0.0004  -0.0005   0.00    3.2
2020/09/16 11:53:25.000   47.409360789    8.497175529   571.0223   1  10   0.0004   0.0004   0.0010   0.0003  -0.0004  -0.0005   0.00    3.3
2020/09/16 11:53:26.000   47.409360789    8.497175530   571.0223   1  10   0.0004   0.0004   0.0010   0.0003  -0.0004  -0.0005   0.00    3.3
2020/09/16 11:53:27.000   47.409360789    8.497175530   571.0223   1  10   0.0004   0.0004   0.0010   0.0003  -0.0004  -0.0005   0.00    3.3
2020/09/16 11:53:28.000   47.409360789    8.497175530   571.0223   1  10   0.0004   0.0004   0.0010   0.0003  -0.0004  -0.0005   0.00    3.4
2020/09/16 11:53:29.000   47.409360789    8.497175530   571.0223   1  10   0.0004   0.0004   0.0010   0.0003  -0.0004  -0.0005   0.00    3.4
2020/09/16 11:53:30.000   47.409360789    8.497175530   571.0223   1  10   0.0004   0.0004   0.0010   0.0003  -0.0004  -0.0005   0.00    3.5
2020/09/16 11:53:31.000   47.409360789    8.497175530   571.0223   1  10   0.0004   0.0004   0.0010   0.0003  -0.0004  -0.0005   0.00    3.5
2020/09/16 11:53:32.000   47.409360789    8.497175530   571.0223   1  10   0.0004   0.0004   0.0010   0.0003  -0.0004  -0.0005   0.00    3.6
2020/09/16 11:53:33.000   47.409360789    8.497175530   571.0223   1  10   0.0004   0.0004   0.0010   0.0003  -0.0004  -0.0005   0.00    3.6
2020/09/16 11:53:34.000   47.409360789    8.497175530   571.0223   1  10   0.0004   0.0004   0.0010   0.0003  -0.0004  -0.0005   0.00    3.7
2020/09/16 11:53:35.000   47.409360789    8.497175530   571.0223   1  10   0.0004   0.0004   0.0010   0.0003  -0.0004  -0.0005   0.00    3.7
2020/09/16 11:53:36.000   47.409360789    8.497175530   571.0223   1  10   0.0004   0.0004   0.0010   0.0003  -0.0004  -0.0005   0.00    3.8
2020/09/16 11:53:37.000   47.409360788    8.497175530   571.0223   1  10   0.0004   0.0004   0.0010   0.0003  -0.0004  -0.0005   0.00    3.8
2020/09/16 11:53:38.000   47.409360788    8.497175530   571.0223   1  10   0.0004   0.0004   0.0010   0.0003  -0.0004  -0.0005   0.00    3.9
2020/09/16 11:53:39.000   47.409360788    8.497175530   571.0223   1  10   0.0004   0.0004   0.0010   0.0003  -0.0004  -0.0005   0.00    3.9
2020/09/16 11:53:40.000   47.409360788    8.497175530   571.0223   1  10   0.0004   0.0004   0.0010   0.0003  -0.0004  -0.0005   0.00    3.9
2020/09/16 11:53:41.000   47.409360789    8.497175530   571.0223   1  10   0.0004   0.0004   0.0010   0.0003  -0.0004  -0.0005   0.00    4.0
2020/09/16 11:53:42.000   47.409360788    8.497175530   571.0223   1  10   0.0004   0.0004   0.0010   0.0003  -0.0004  -0.0005   0.00    4.1
2020/09/16 11:53:43.000   47.409360788    8.497175530   571.0223   1  10   0.0004   0.0004   0.0010   0.0003  -0.0004  -0.0005   0.00    4.1
2020/09/16 11:53:44.000   47.409360788    8.497175530   571.0223   1  10   0.0004   0.0004   0.0010   0.0003  -0.0004  -0.0005   0.00    4.2
2020/09/16 11:53:45.000   47.409360788    8.497175530   571.0223   1  10   0.0004   0.0004   0.0010   0.0003  -0.0004  -0.0005   0.00    4.3
2020/09/16 11:53:46.000   47.409360789    8.497175530   571.0223   1  10   0.0004   0.0004   0.0010   0.0003  -0.0004  -0.0005   0.00    4.4
2020/09/16 11:53:47.000   47.409360789    8.497175530   571.0223   1  10   0.0004   0.0004   0.0010   0.0003  -0.0004  -0.0005   0.00    4.6
2020/09/16 11:53:48.000   47.409360788    8.497175530   571.0223   1  10   0.0004   0.0004   0.0010   0.0003  -0.0004  -0.0005   0.00    4.7
2020/09/16 11:53:49.000   47.409360788    8.497175530   571.0223   1  10   0.0004   0.0004   0.0010   0.0003  -0.0004  -0.0005   0.00    4.8
2020/09/16 11:53:50.000   47.409360788    8.497175530   571.0223   1  10   0.0004   0.0004   0.0010   0.0003  -0.0004  -0.0005   0.00    5.0
2020/09/16 11:53:51.000   47.409360788    8.497175530   571.0223   1  10   0.0004   0.0004   0.0010   0.0003  -0.0004  -0.0005   0.00    5.2
2020/09/16 11:53:52.000   47.409360788    8.497175530   571.0223   1  10   0.0004   0.0004   0.0010   0.0003  -0.0004  -0.0005   0.00    5.3
2020/09/16 11:53:53.000   47.409360789    8.497175530   571.0223   1  10   0.0004   0.0004   0.0010   0.0003  -0.0004  -0.0005   0.00    5.5
2020/09/16 11:53:54.000   47.409360788    8.497175530   571.0223   1  10   0.0004   0.0004   0.0010   0.0003  -0.0004  -0.0005   0.00    5.7
2020/09/16 11:53:55.000   47.409360788    8.497175530   571.0223   1  10   0.0004   0.0004   0.0010   0.0003  -0.0004  -0.0005   0.00    5.8
2020/09/16 11:53:56.000   47.409360788    8.497175530   571.0223   1  10   0.0004   0.0004   0.0010   0.0003  -0.0004  -0.0005   0.00    6.0
2020/09/16 11:53:57.000   47.409360788    8.497175530   571.0223   1  10   0.0004   0.0004   0.0010   0.0003  -0.0004  -0.0005   0.00    6.2
2020/09/16 11:53:58.000   47.409360788    8.497175530   571.0223   1  10   0.0004   0.0004   0.0010   0.0003  -0.0004  -0.0005   0.00    6.4
2020/09/16 11:53:59.000   47.409360788    8.497175530   571.0223   1  10   0.0004   0.0004   0.0010   0.0003  -0.0004  -0.0005   0.00    6.7
2020/09/16 11:54:00.000   47.409360788    8.497175530   571.0223   1  10   0.0004   0.0004   0.0010   0.0003  -0.0004  -0.0005   0.00    6.9
2020/09/16 11:54:01.000   47.409360788    8.497175530   571.0223   1  10   0.0004   0.0004   0.0010   0.0003  -0.0004  -0.0005   0.00    7.1
2020/09/16 11:54:02.000   47.409360788    8.497175530   571.0223   1  10   0.0004   0.0004   0.0010   0.0003  -0.0004  -0.0005   0.00    7.4
2020/09/16 11:54:03.000   47.409360788    8.497175530   571.0223   1  10   0.0004   0.0004   0.0010   0.0003  -0.0004  -0.0005   0.00    7.6
2020/09/16 11:54:04.000   47.409360788    8.497175530   571.0223   1  10   0.0004   0.0004   0.0010   0.0003  -0.0004  -0.0005   0.00    7.8
2020/09/16 11:54:05.000   47.409360788    8.497175530   571.0223   1  10   0.0004   0.0004   0.0010   0.0003  -0.0004  -0.0005   0.00    8.1
2020/09/16 11:54:06.000   47.409360788    8.497175530   571.0223   1  10   0.0004   0.0004   0.0010   0.0003  -0.0004  -0.0005   0.00    8.3
2020/09/16 11:54:07.000   47.409360788    8.497175530   571.0223   1  10   0.0004   0.0004   0.0010   0.0003  -0.0004  -0.0005   0.00    8.5
2020/09/16 11:54:08.000   47.409360788    8.497175530   571.0223   1  10   0.0004   0.0004   0.0010   0.0003  -0.0004  -0.0005   0.00    8.7
2020/09/16 11:54:09.000   47.409360788    8.497175530   571.0223   1  10   0.0004   0.0004   0.0010   0.0003  -0.0004  -0.0004   0.00    8.9
2020/09/16 11:54:10.000   47.409360788    8.497175530   571.0223   1  10   0.0004   0.0004   0.0010   0.0003  -0.0004  -0.0004   0.00    9.2
2020/09/16 11:54:11.000   47.409360788    8.497175530   571.0223   1  10   0.0004   0.0004   0.0010   0.0003  -0.0004  -0.0004   0.00    9.4
2020/09/16 11:54:12.000   47.409360788    8.497175530   571.0223   1  10   0.0004   0.0004   0.0010   0.0003  -0.0004  -0.0004   0.00    9.7
2020/09/16 11:54:13.000   47.409360788    8.497175530   571.0223   1  10   0.0004   0.0004   0.0010   0.0003  -0.0004  -0.0004   0.00    9.9
2020/09/16 11:54:14.000   47.409360788    8.497175530   571.0224   1  10   0.0004   0.0004   0.0010   0.0003  -0.0004  -0.0004   0.00   10.1
2020/09/16 11:54:15.000   47.409360788    8.497175530   571.0224   1  10   0.0004   0.0004   0.0010   0.0003  -0.0004  -0.0004   0.00   10.4
2020/09/16 11:54:16.000   47.409360788    8.497175530   571.0223   1  10   0.0004   0.0004   0.0010   0.0003  -0.0004  -0.0004   0.00   10.6
2020/09/16 11:54:17.000   47.409360788    8.497175530   571.0224   1  10   0.0004   0.0004   0.0010   0.0003  -0.0004  -0.0004   0.00   10.9
2020/09/16 11:54:18.000   47.409360788    8.497175530   571.0224   1  10   0.0004   0.0004   0.0010   0.0003  -0.0004  -0.0004   0.00   11.1
2020/09/16 11:54:19.000   47.409360788    8.497175530   571.0224   1  10   0.0004   0.0004   0.0010   0.0003  -0.0004  -0.0004   0.00   11.3
2020/09/16 11:54:20.000   47.409360788    8.497175530   571.0224   1  10   0.0004   0.0004   0.0010   0.0003  -0.0004  -0.0004   0.00   11.6
2020/09/16 11:54:21.000   47.409360788    8.497175530   571.0224   1  10   0.0004   0.0004   0.0010   0.0003  -0.0004  -0.0004   0.00   11.8
2020/09/16 11:54:22.000   47.409360788    8.497175530   571.0224   1  10   0.0004   0.0004   0.0010   0.0003  -0.0004  -0.0004   0.00   12.0
2020/09/16 11:54:23.000   47.409360788    8.497175530   571.0224   1  10   0.0004   0.0004   0.0010   0.0003  -0.0004  -0.0004   0.00   12.2
2020/09/16 11:54:24.000   47.409360788    8.497175530   571.0224   1  10   0.0004   0.0004   0.0010   0.0003  -0.0004  -0.0004   0.00   12.4
2020/09/16 11:54:25.000   47.409360788    8.497175530   571.0224   1  10   0.0004   0.0004   0.0010   0.0003  -0.0004  -0.0004   0.00   12.6
2020/09/16 11:54:26.000   47.409360788    8.497175530   571.0224   1  10   0.0004   0.0004   0.0010   0.0003  -0.0004  -0.0004   0.00   12.8
2020/09/16 11:54:27.000   47.409360788    8.497175530   571.0224   1  10   0.0004   0.0004   0.0010   0.0003  -0.0004  -0.0004   0.00   13.0
2020/09/16 11:54:28.000   47.409360788    8.497175530   571.0224   1  10   0.0004   0.0004   0.0010   0.0003  -0.0004  -0.0004   0.00   13.1
2020/09/16 11:54:29.000   47.409360788    8.497175530   571.0224   1  10   0.0004   0.0004   0.0010   0.0003  -0.0004  -0.0004   0.00   13.1
2020/09/16 11:54:30.000   47.409360788    8.497175530   571.0224   1  10   0.0004   0.0004   0.0010   0.0003  -0.0004  -0.0004   0.00   13.1
2020/09/16 11:54:31.000   47.409360788    8.497175530   571.0224   1  10   0.0004   0.0004   0.0010   0.0003  -0.0004  -0.0004   0.00   13.1
2020/09/16 11:54:32.000   47.409360788    8.497175530   571.0224   1  10   0.0004   0.0004   0.0010   0.0003  -0.0004  -0.0004   0.00   13.1
2020/09/16 11:54:33.000   47.409360788    8.497175530   571.0224   1  10   0.0004   0.0004   0.0010   0.0003  -0.0004  -0.0004   0.00   13.1
2020/09/16 11:54:34.000   47.409360788    8.497175530   571.0224   1  10   0.0004   0.0004   0.0010   0.0003  -0.0004  -0.0004   0.00   13.1
2020/09/16 11:54:35.000   47.409360788    8.497175530   571.0224   1  10   0.0004   0.0004   0.0010   0.0003  -0.0004  -0.0004   0.00   13.2
2020/09/16 11:54:36.000   47.409360788    8.497175530   571.0224   1  10   0.0004   0.0004   0.0010   0.0003  -0.0004  -0.0004   0.00   13.2
2020/09/16 11:54:37.000   47.409360788    8.497175530   571.0224   1  10   0.0004   0.0004   0.0010   0.0003  -0.0004  -0.0004   0.00   13.3
2020/09/16 11:54:38.000   47.409360788    8.497175530   571.0224   1  10   0.0004   0.0004   0.0010   0.0003  -0.0004  -0.0004   0.00   13.3
2020/09/16 11:54:39.000   47.409360788    8.497175530   571.0224   1  10   0.0004   0.0004   0.0010   0.0003  -0.0004  -0.0004   0.00   13.2
2020/09/16 11:54:40.000   47.409360788    8.497175530   571.0224   1  10   0.0004   0.0004   0.0010   0.0003  -0.0004  -0.0004   0.00   13.3
2020/09/16 11:54:41.000   47.409360788    8.497175530   571.0224   1  10   0.0004   0.0004   0.0010   0.0003  -0.0004  -0.0004   0.00   13.2
2020/09/16 11:54:42.000   47.409360788    8.497175530   571.0224   1  10   0.0004   0.0004   0.0010   0.0003  -0.0004  -0.0004   0.00   13.2
2020/09/16 11:54:43.000   47.409360788    8.497175530   571.0224   1  10   0.0004   0.0004   0.0010   0.0003  -0.0004  -0.0004   0.00   13.2
2020/09/16 11:54:44.000   47.409360788    8.497175530   571.0224   1  10   0.0004   0.0004   0.0010   0.0003  -0.0004  -0.0004   0.00   13.1
2020/09/16 11:54:45.000   47.409360788    8.497175530   571.0225   1  10   0.0004   0.0004   0.0010   0.0003  -0.0004  -0.0004   0.00   13.1
2020/09/16 11:54:46.000   47.409360788    8.497175530   571.0224   1  10   0.0004   0.0004   0.0010   0.0003  -0.0004  -0.0004   0.00   13.0
2020/09/16 11:54:47.000   47.409360788    8.497175530   571.0224   1  10   0.0004   0.0004   0.0010   0.0003  -0.0004  -0.0004   0.00   13.0
2020/09/16 11:54:48.000   47.409360788    8.497175530   571.0224   1  10   0.0004   0.0004   0.0010   0.0003  -0.0004  -0.0004   0.00   13.0
2020/09/16 11:54:49.000   47.409360788    8.497175530   571.0224   1  10   0.0004   0.0004   0.0010   0.0003  -0.0004  -0.0004   0.00   13.0
2020/09/16 11:54:50.000   47.409360788    8.497175530   571.0225   1  10   0.0004   0.0004   0.0010   0.0003  -0.0004  -0.0004   0.00   12.9
2020/09/16 11:54:51.000   47.409360788    8.497175530   571.0225   1  10   0.0004   0.0004   0.0010   0.0003  -0.0004  -0.0004   0.00   13.0
2020/09/16 11:54:52.000   47.409360788    8.497175530   571.0225   1  10   0.0004   0.0004   0.0010   0.0003  -0.0004  -0.0004   0.00   13.0
2020/09/16 11:54:53.000   47.409360788    8.497175530   571.0225   1  10   0.0004   0.0004   0.0010   0.0003  -0.0004  -0.0004   0.00   12.9
2020/09/16 11:54:54.000   47.409360788    8.497175530   571.0225   1  10   0.0004   0.0004   0.0010   0.0003  -0.0004  -0.0004   0.00   13.0
2020/09/16 11:54:55.000   47.409360788    8.497175530   571.0225   1  10   0.0004   0.0004   0.0010   0.0003  -0.0004  -0.0004   0.00   13.0
2020/09/16 11:54:56.000   47.409360788    8.497175530   571.0225   1  10   0.0004   0.0004   0.0010   0.0003  -0.0004  -0.0004   0.00   13.0
2020/09/16 11:54:57.000   47.409360788    8.497175530   571.0225   1  10   0.0004   0.0004   0.0010   0.0003  -0.0004  -0.0004   0.00   13.0
2020/09/16 11:54:58.000   47.409360788    8.497175530   571.0225   1  10   0.0004   0.0004   0.0010   0.0003  -0.0004  -0.0004   0.00   13.1
2020/09/16 11:54:59.000   47.409360788    8.497175530   571.0225   1  10   0.0004   0.0004   0.0010   0.0003  -0.0004  -0.0004   0.00   13.1
2020/09/16 11:55:00.000   47.409360788    8.497175530   571.0225   1  10   0.0004   0.0004   0.0010   0.0003  -0.0004  -0.0004   0.00   13.2
2020/09/16 11:55:01.000   47.409360788    8.497175530   571.0225   1  10   0.0004   0.0004   0.0010   0.0003  -0.0004  -0.0004   0.00   13.3
2020/09/16 11:55:02.000   47.409360788    8.497175530   571.0225   1  10   0.0004   0.0004   0.0010   0.0003  -0.0004  -0.0004   0.00   13.5
2020/09/16 11:55:03.000   47.409360788    8.497175530   571.0225   1  10   0.0004   0.0004   0.0010   0.0003  -0.0004  -0.0004   0.00   13.6
2020/09/16 11:55:04.000   47.409360788    8.497175530   571.0225   1  10   0.0004   0.0004   0.0010   0.0003  -0.0004  -0.0004   0.00   13.8
2020/09/16 11:55:05.000   47.409360788    8.497175530   571.0225   1  10   0.0004   0.0004   0.0010   0.0003  -0.0004  -0.0004   0.00   13.9
2020/09/16 11:55:06.000   47.409360788    8.497175530   571.0225   1  10   0.0004   0.0004   0.0010   0.0003  -0.0004  -0.0004   0.00   14.0
2020/09/16 11:55:07.000   47.409360788    8.497175530   571.0225   1  10   0.0004   0.0004   0.0010   0.0003  -0.0004  -0.0004   0.00   14.1
2020/09/16 11:55:08.000   47.409360788    8.497175530   571.0225   1  10   0.0004   0.0004   0.0010   0.0003  -0.0004  -0.0004   0.00   14.3
2020/09/16 11:55:09.000   47.409360788    8.497175530   571.0225   1  10   0.0004   0.0004   0.0010   0.0003  -0.0004  -0.0004   0.00   14.4
2020/09/16 11:55:10.000   47.409360788    8.497175530   571.0225   1  10   0.0004   0.0004   0.0010   0.0003  -0.0004  -0.0004   0.00   14.6
2020/09/16 11:55:11.000   47.409360788    8.497175530   571.0225   1  10   0.0004   0.0004   0.0010   0.0003  -0.0004  -0.0004   0.00   14.7
2020/09/16 11:55:12.000   47.409360788    8.497175530   571.0225   1  10   0.0004   0.0004   0.0010   0.0003  -0.0004  -0.0004   0.00   14.8
2020/09/16 11:55:13.000   47.409360788    8.497175530   571.0225   1  10   0.0004   0.0004   0.0010   0.0003  -0.0004  -0.0004   0.00   14.9
2020/09/16 11:55:14.000   47.409360788    8.497175530   571.0225   1  10   0.0004   0.0004   0.0010   0.0003  -0.0004  -0.0004   0.00   15.0
2020/09/16 11:55:15.000   47.409360788    8.497175531   571.0225   1  10   0.0004   0.0004   0.0010   0.0003  -0.0004  -0.0004   0.00   15.2
2020/09/16 11:55:16.000   47.409360788    8.497175531   571.0225   1  10   0.0004   0.0004   0.0010   0.0003  -0.0004  -0.0004   0.00   15.3
2020/09/16 11:55:17.000   47.409360788    8.497175531   571.0225   1  10   0.0004   0.0004   0.0010   0.0003  -0.0004  -0.0004   0.00   15.4
2020/09/16 11:55:18.000   47.409360788    8.497175531   571.0226   1  10   0.0004   0.0004   0.0010   0.0003  -0.0004  -0.0004   0.00   15.5
2020/09/16 11:55:19.000   47.409360788    8.497175531   571.0226   1  10   0.0004   0.0004   0.0010   0.0003  -0.0004  -0.0004   0.00   15.7
2020/09/16 11:55:20.000   47.409360788    8.497175531   571.0226   1  10   0.0004   0.0004   0.0010   0.0003  -0.0004  -0.0004   0.00   15.8
2020/09/16 11:55:21.000   47.409360788    8.497175531   571.0226   1  10   0.0004   0.0004   0.0010   0.0003  -0.0004  -0.0004   0.00   16.0
2020/09/16 11:55:22.000   47.409360788    8.497175531   571.0226   1  10   0.0004   0.0004   0.0010   0.0003  -0.0004  -0.0004   0.00   16.1
2020/09/16 11:55:23.000   47.409360788    8.497175531   571.0226   1  10   0.0004   0.0004   0.0010   0.0003  -0.0004  -0.0004   0.00   16.2
2020/09/16 11:55:24.000   47.409360788    8.497175531   571.0226   1  10   0.0004   0.0004   0.0010   0.0003  -0.0004  -0.0004   0.00   16.3
2020/09/16 11:55:25.000   47.409360788    8.497175531   571.0226   1  10   0.0004   0.0004   0.0010   0.0003  -0.0004  -0.0004   0.00   16.4
2020/09/16 11:55:26.000   47.409360788    8.497175531   571.0226   1  10   0.0004   0.0004   0.0010   0.0003  -0.0004  -0.0004   0.00   16.5
2020/09/16 11:55:27.000   47.409360788    8.497175531   571.0226   1  10   0.0004   0.0004   0.0010   0.0003  -0.0004  -0.0004   0.00   16.6
2020/09/16 11:55:28.000   47.409360788    8.497175531   571.0226   1  10   0.0004   0.0004   0.0010   0.0003  -0.0004  -0.0004   0.00   16.7
2020/09/16 11:55:29.000   47.409360788    8.497175531   571.0226   1  10   0.0004   0.0004   0.0010   0.0003  -0.0004  -0.0004   0.00   16.8
2020/09/16 11:55:30.000   47.409360788    8.497175531   571.0226   1  10   0.0004   0.0004   0.0010   0.0003  -0.0004  -0.0004   0.00   16.9
2020/09/16 11:55:31.000   47.409360788    8.497175531   571.0226   1  10   0.0004   0.0004   0.0010   0.0003  -0.0004  -0.0004   0.00   17.0
2020/09/16 11:55:32.000   47.409360788    8.497175531   571.0226   1  10   0.0004   0.0004   0.0010   0.0003  -0.0004  -0.0004   0.00   17.0
2020/09/16 11:55:33.000   47.409360788    8.497175531   571.0226   1  10   0.0004   0.0004   0.0010   0.0003  -0.0004  -0.0004   0.00   17.1
2020/09/16 11:55:34.000   47.409360788    8.497175531   571.0226   1  10   0.0004   0.0004   0.0010   0.0003  -0.0004  -0.0004   0.00   17.2
2020/09/16 11:55:35.000   47.409360788    8.497175531   571.0226   1  10   0.0004   0.0004   0.0010   0.0003  -0.0004  -0.0004   0.00   17.3
2020/09/16 11:55:36.000   47.409360788    8.497175531   571.0226   1  10   0.0004   0.0004   0.0010   0.0003  -0.0004  -0.0004   0.00   17.4
2020/09/16 11:55:37.000   47.409360788    8.497175531   571.0226   1  10   0.0004   0.0004   0.0010   0.0003  -0.0004  -0.0004   0.00   17.6
2020/09/16 11:55:38.000   47.409360788    8.497175531   571.0226   1  10   0.0004   0.0004   0.0010   0.0003  -0.0004  -0.0004   0.00   17.7
2020/09/16 11:55:39.000   47.409360788    8.497175531   571.0226   1  10   0.0004   0.0004   0.0010   0.0003  -0.0004  -0.0004   0.00   17.8
2020/09/16 11:55:40.000   47.409360788    8.497175531   571.0226   1  10   0.0004   0.0004   0.0010   0.0003  -0.0004  -0.0004   0.00   18.0
2020/09/16 11:55:41.000   47.409360788    8.497175531   571.0226   1  10   0.0004   0.0004   0.0010   0.0003  -0.0004  -0.0004   0.00   18.1
2020/09/16 11:55:42.000   47.409360788    8.497175531   571.0226   1  10   0.0004   0.0004   0.0010   0.0003  -0.0004  -0.0004   0.00   18.2
2020/09/16 11:55:43.000   47.409360788    8.497175531   571.0226   1  10   0.0004   0.0004   0.0010   0.0003  -0.0004  -0.0004   0.00   18.3
2020/09/16 11:55:44.000   47.409360788    8.497175531   571.0226   1  10   0.0004   0.0004   0.0010   0.0003  -0.0004  -0.0004   0.00   18.4
2020/09/16 11:55:45.000   47.409360788    8.497175531   571.0226   1  10   0.0004   0.0004   0.0010   0.0003  -0.0004  -0.0004   0.00   18.6
2020/09/16 11:55:46.000   47.409360788    8.497175531   571.0226   1  10   0.0004   0.0004   0.0010   0.0003  -0.0004  -0.0004   0.00   18.7
2020/09/16 11:55:47.000   47.409360788    8.497175531   571.0226   1  10   0.0004   0.0004   0.0010   0.0003  -0.0004  -0.0004   0.00   18.8
2020/09/16 11:55:48.000   47.409360788    8.497175531   571.0226   1  10   0.0004   0.0004   0.0010   0.0003  -0.0004  -0.0004   0.00   18.9
2020/09/16 11:55:49.000   47.409360788    8.497175531   571.0226   1  10   0.0004   0.0004   0.0010   0.0003  -0.0004  -0.0004   0.00   19.0
2020/09/16 11:55:50.000   47.409360788    8.497175531   571.0226   1  10   0.0004   0.0004   0.0010   0.0003  -0.0004  -0.0004   0.00   19.1
2020/09/16 11:55:51.000   47.409360788    8.497175531   571.0226   1  10   0.0004   0.0004   0.0010   0.0003  -0.0004  -0.0004   0.00   19.3
2020/09/16 11:55:52.000   47.409360788    8.497175531   571.0226   1  10   0.0004   0.0004   0.0010   0.0003  -0.0004  -0.0004   0.00   19.3
2020/09/16 11:55:53.000   47.409360788    8.497175531   571.0226   1  10   0.0004   0.0004   0.0010   0.0003  -0.0004  -0.0004   0.00   19.5
2020/09/16 11:55:54.000   47.409360788    8.497175531   571.0226   1  10   0.0004   0.0004   0.0010   0.0003  -0.0004  -0.0004   0.00   19.6
2020/09/16 11:55:55.000   47.409360788    8.497175531   571.0226   1  10   0.0004   0.0004   0.0010   0.0003  -0.0004  -0.0004   0.00   19.7
2020/09/16 11:55:56.000   47.409360788    8.497175531   571.0226   1  10   0.0004   0.0004   0.0010   0.0003  -0.0004  -0.0004   0.00   19.8
2020/09/16 11:55:57.000   47.409360788    8.497175531   571.0226   1  10   0.0004   0.0004   0.0010   0.0003  -0.0004  -0.0004   0.00   20.0
2020/09/16 11:55:58.000   47.409360788    8.497175531   571.0226   1  10   0.0004   0.0004   0.0010   0.0003  -0.0004  -0.0004   0.00   20.1
2020/09/16 11:55:59.000   47.409360788    8.497175531   571.0227   1  10   0.0004   0.0004   0.0010   0.0003  -0.0004  -0.0004   0.00   20.2
2020/09/16 11:56:00.000   47.409360788    8.497175531   571.0226   1  10   0.0004   0.0004   0.0010   0.0003  -0.0004  -0.0004   0.00   20.3
2020/09/16 11:56:01.000   47.409360788    8.497175531   571.0227   1  10   0.0004   0.0004   0.0010   0.0003  -0.0004  -0.0004   0.00   20.5
2020/09/16 11:56:02.000   47.409360788    8.497175531   571.0227   1  10   0.0004   0.0004   0.0010   0.0003  -0.0004  -0.0004   0.00   20.6
2020/09/16 11:56:03.000   47.409360788    8.497175531   571.0227   1  10   0.0004   0.0004   0.0010   0.0003  -0.0004  -0.0004   0.00   20.8
2020/09/16 11:56:04.000   47.409360788    8.497175531   571.0227   1  10   0.0004   0.0004   0.0010   0.0003  -0.0004  -0.0004   0.00   21.0
2020/09/16 11:56:05.000   47.409360788    8.497175531   571.0227   1  10   0.0004   0.0004   0.0010   0.0003  -0.0004  -0.0004   0.00   21.2
2020/09/16 11:56:06.000   47.409360788    8.497175531   571.0227   1  10   0.0004   0.0004   0.0010   0.0003  -0.0004  -0.0004   0.00   21.3
2020/09/16 11:56:07.000   47.409360788    8.497175531   571.0227   1  10   0.0004   0.0004   0.0010   0.0003  -0.0004  -0.0004   0.00   21.4
2020/09/16 11:56:08.000   47.409360788    8.497175531   571.0227   1  10   0.0004   0.0004   0.0010   0.0003  -0.0004  -0.0004   0.00   21.5
2020/09/16 11:56:09.000   47.409360788    8.497175531   571.0227   1  10   0.0004   0.0004   0.0010   0.0003  -0.0004  -0.0004   0.00   21.6
2020/09/16 11:56:10.000   47.409360788    8.497175531   571.0227   1  10   0.0004   0.0004   0.0010   0.0003  -0.0004  -0.0004   0.00   21.7
2020/09/16 11:56:11.000   47.409360788    8.497175531   571.0227   1  10   0.0004   0.0004   0.0010   0.0003  -0.0004  -0.0004   0.00   21.8
2020/09/16 11:56:12.000   47.409360788    8.497175531   571.0227   1  10   0.0004   0.0004   0.0010   0.0003  -0.0004  -0.0004   0.00   22.0
2020/09/16 11:56:13.000   47.409360788    8.497175531   571.0227   1  10   0.0004   0.0004   0.0010   0.0003  -0.0004  -0.0004   0.00   22.1
2020/09/16 11:56:14.000   47.409360788    8.497175531   571.0227   1  10   0.0004   0.0004   0.0010   0.0003  -0.0004  -0.0004   0.00   22.2
2020/09/16 11:56:15.000   47.409360788    8.497175531   571.0227   1  10   0.0004   0.0004   0.0010   0.0003  -0.0004  -0.0004   0.00   22.3
2020/09/16 11:56:16.000   47.409360788    8.497175531   571.0227   1  10   0.0004   0.0004   0.0010   0.0003  -0.0004  -0.0004   0.00   22.4
2020/09/16 11:56:17.000   47.409360788    8.497175531   571.0227   1  10   0.0004   0.0004   0.0010   0.0003  -0.0004  -0.0004   0.00   22.5
2020/09/16 11:56:18.000   47.409360788    8.497175531   571.0227   1  10   0.0004   0.0004   0.0010   0.0003  -0.0004  -0.0004   0.00   22.6
2020/09/16 11:56:19.000   47.409360788    8.497175531   571.0227   1  10   0.0004   0.0004   0.0010   0.0003  -0.0004  -0.0004   0.00   22.7
2020/09/16 11:56:20.000   47.409360788    8.497175531   571.0227   1  10   0.0004   0.0004   0.0010   0.0003  -0.0004  -0.0004   0.00   22.8
2020/09/16 11:56:21.000   47.409360788    8.497175531   571.0227   1  10   0.0004   0.0004   0.0010   0.0003  -0.0004  -0.0004   0.00   22.8
2020/09/16 11:56:22.000   47.409360788    8.497175531   571.0227   1  10   0.0004   0.0004   0.0010   0.0003  -0.0004  -0.0004   0.00   22.9
2020/09/16 11:56:23.000   47.409360788    8.497175531   571.0227   1  10   0.0004   0.0004   0.0010   0.0003  -0.0004  -0.0004   0.00   23.0
2020/09/16 11:56:24.000   47.409360788    8.497175531   571.0227   1  10   0.0004   0.0004   0.0010   0.0003  -0.0004  -0.0004   0.00   23.1
2020/09/16 11:56:25.000   47.409360788    8.497175531   571.0227   1  10   0.0004   0.0004   0.0010   0.0003  -0.0004  -0.0004   0.00   23.2
2020/09/16 11:56:26.000   47.409360788    8.497175531   571.0227   1  10   0.0004   0.0004   0.0010   0.0003  -0.0004  -0.0004   0.00   23.3
2020/09/16 11:56:27.000   47.409360788    8.497175531   571.0227   1  10   0.0004   0.0004   0.0010   0.0003  -0.0004  -0.0004   0.00   23.5
2020/09/16 11:56:28.000   47.409360788    8.497175531   571.0228   1  10   0.0004   0.0004   0.0010   0.0003  -0.0004  -0.0004   0.00   23.5
2020/09/16 11:56:29.000   47.409360788    8.497175531   571.0227   1  10   0.0004   0.0004   0.0010   0.0003  -0.0004  -0.0004   0.00   23.7
2020/09/16 11:56:30.000   47.409360788    8.497175531   571.0228   1  10   0.0004   0.0004   0.0010   0.0003  -0.0004  -0.0004   0.00   23.8
2020/09/16 11:56:31.000   47.409360788    8.497175531   571.0227   1  10   0.0004   0.0004   0.0010   0.0003  -0.0004  -0.0004   0.00   23.9
2020/09/16 11:56:32.000   47.409360788    8.497175531   571.0228   1  10   0.0004   0.0004   0.0010   0.0003  -0.0004  -0.0004   0.00   24.0
2020/09/16 11:56:33.000   47.409360788    8.497175531   571.0228   1  10   0.0004   0.0004   0.0010   0.0003  -0.0004  -0.0004   0.00   24.0
2020/09/16 11:56:34.000   47.409360788    8.497175531   571.0227   1  10   0.0004   0.0004   0.0010   0.0003  -0.0004  -0.0004   0.00   24.1
2020/09/16 11:56:35.000   47.409360788    8.497175531   571.0228   1  10   0.0004   0.0004   0.0010   0.0003  -0.0004  -0.0004   0.00   24.2
2020/09/16 11:56:36.000   47.409360788    8.497175531   571.0228   1  10   0.0004   0.0004   0.0010   0.0003  -0.0004  -0.0004   0.00   24.2
2020/09/16 11:56:37.000   47.409360788    8.497175531   571.0228   1  10   0.0004   0.0004   0.0010   0.0003  -0.0004  -0.0004   0.00   24.2
2020/09/16 11:56:38.000   47.409360788    8.497175531   571.0228   1  10   0.0004   0.0004   0.0010   0.0003  -0.0004  -0.0004   0.00   24.2
2020/09/16 11:56:39.000   47.409360788    8.497175531   571.0228   1  10   0.0004   0.0004   0.0010   0.0003  -0.0004  -0.0004   0.00   24.2
2020/09/16 11:56:40.000   47.409360788    8.497175531   571.0228   1  10   0.0004   0.0004   0.0010   0.0003  -0.0004  -0.0004   0.00   24.2
2020/09/16 11:56:41.000   47.409360788    8.497175531   571.0228   1  10   0.0004   0.0004   0.0010   0.0003  -0.0004  -0.0004   0.00   24.2
2020/09/16 11:56:42.000   47.409360788    8.497175531   571.0228   1  10   0.0004   0.0004   0.0010   0.0003  -0.0004  -0.0004   0.00   24.3
2020/09/16 11:56:43.000   47.409360788    8.497175531   571.0228   1  10   0.0004   0.0004   0.0010   0.0003  -0.0004  -0.0004   0.00   24.4
2020/09/16 11:56:44.000   47.409360788    8.497175531   571.0228   1  10   0.0004   0.0004   0.0010   0.0003  -0.0004  -0.0004   0.00   24.4
2020/09/16 11:56:45.000   47.409360788    8.497175531   571.0228   1  10   0.0004   0.0004   0.0010   0.0003  -0.0004  -0.0004   0.00   24.4
2020/09/16 11:56:46.000   47.409360788    8.497175531   571.0228   1  10   0.0004   0.0004   0.0010   0.0003  -0.0004  -0.0004   0.00   24.4
2020/09/16 11:56:47.000   47.409360788    8.497175531   571.0228   1  10   0.0004   0.0004   0.0010   0.0003  -0.0004  -0.0004   0.00   24.5
2020/09/16 11:56:48.000   47.409360788    8.497175531   571.0228   1  10   0.0004   0.0004   0.0010   0.0003  -0.0004  -0.0004   0.00   24.5
2020/09/16 11:56:49.000   47.409360788    8.497175531   571.0228   1  10   0.0004   0.0004   0.0010   0.0003  -0.0004  -0.0004   0.00   24.5
2020/09/16 11:56:50.000   47.409360788    8.497175531   571.0228   1  10   0.0004   0.0004   0.0010   0.0003  -0.0004  -0.0004   0.00   24.5
2020/09/16 11:56:51.000   47.409360788    8.497175531   571.0228   1  10   0.0004   0.0004   0.0010   0.0003  -0.0004  -0.0004   0.00   24.5
2020/09/16 11:56:52.000   47.409360788    8.497175531   571.0228   1  10   0.0004   0.0004   0.0010   0.0003  -0.0004  -0.0004   0.00   24.5
2020/09/16 11:56:53.000   47.409360788    8.497175531   571.0229   1  10   0.0004   0.0004   0.0010   0.0003  -0.0004  -0.0004   0.00   24.5
2020/09/16 11:56:54.000   47.409360788    8.497175531   571.0229   1  10   0.0004   0.0004   0.0010   0.0003  -0.0004  -0.0004   0.00   24.5
2020/09/16 11:56:55.000   47.409360788    8.497175531   571.0229   1  10   0.0004   0.0004   0.0010   0.0003  -0.0004  -0.0004   0.00   24.5
2020/09/16 11:56:56.000   47.409360788    8.497175531   571.0229   1  10   0.0004   0.0004   0.0010   0.0003  -0.0004  -0.0004   0.00   24.5
2020/09/16 11:56:57.000   47.409360788    8.497175531   571.0229   1  10   0.0004   0.0004   0.0010   0.0003  -0.0004  -0.0004   0.00   24.5
2020/09/16 11:56:58.000   47.409360788    8.497175531   571.0229   1  10   0.0004   0.0004   0.0010   0.0003  -0.0004  -0.0004   0.00   24.5
2020/09/16 11:56:59.000   47.409360788    8.497175531   571.0229   1  10   0.0004   0.0004   0.0010   0.0003  -0.0004  -0.0004   0.00   24.6
2020/09/16 11:57:00.000   47.409360788    8.497175531   571.0229   1  10   0.0004   0.0004   0.0010   0.0003  -0.0004  -0.0004   0.00   24.6
2020/09/16 11:57:01.000   47.409360788    8.497175531   571.0229   1  10   0.0004   0.0004   0.0010   0.0003  -0.0004  -0.0004   0.00   24.6
2020/09/16 11:57:02.000   47.409360788    8.497175532   571.0229   1  10   0.0004   0.0004   0.0010   0.0003  -0.0004  -0.0004   0.00   24.6
2020/09/16 11:57:03.000   47.409360788    8.497175532   571.0229   1  10   0.0004   0.0004   0.0010   0.0003  -0.0004  -0.0004   0.00   24.7
2020/09/16 11:57:04.000   47.409360788    8.497175531   571.0229   1  10   0.0004   0.0004   0.0010   0.0003  -0.0004  -0.0004   0.00   24.7
2020/09/16 11:57:05.000   47.409360788    8.497175532   571.0229   1  10   0.0004   0.0004   0.0010   0.0003  -0.0004  -0.0004   0.00   24.7
2020/09/16 11:57:06.000   47.409360788    8.497175532   571.0229   1  10   0.0004   0.0004   0.0010   0.0003  -0.0004  -0.0004   0.00   24.7
2020/09/16 11:57:07.000   47.409360788    8.497175531   571.0229   1  10   0.0004   0.0004   0.0010   0.0003  -0.0004  -0.0004   0.00   24.7
2020/09/16 11:57:08.000   47.409360788    8.497175531   571.0229   1  10   0.0004   0.0004   0.0010   0.0003  -0.0004  -0.0004   0.00   24.7
2020/09/16 11:57:09.000   47.409360788    8.497175531   571.0229   1  10   0.0004   0.0004   0.0010   0.0003  -0.0004  -0.0004   0.00   24.7
2020/09/16 11:57:10.000   47.409360788    8.497175532   571.0229   1  10   0.0004   0.0004   0.0010   0.0003  -0.0004  -0.0004   0.00   24.8
2020/09/16 11:57:11.000   47.409360788    8.497175531   571.0229   1  10   0.0004   0.0004   0.0010   0.0003  -0.0004  -0.0004   0.00   24.8
2020/09/16 11:57:12.000   47.409360788    8.497175531   571.0229   1  10   0.0004   0.0004   0.0010   0.0003  -0.0004  -0.0004   0.00   24.8
2020/09/16 11:57:13.000   47.409360788    8.497175531   571.0229   1  10   0.0004   0.0004   0.0010   0.0003  -0.0004  -0.0004   0.00   24.8
2020/09/16 11:57:14.000   47.409360788    8.497175531   571.0229   1  10   0.0004   0.0004   0.0010   0.0003  -0.0004  -0.0004   0.00   24.8
2020/09/16 11:57:15.000   47.409360788    8.497175531   571.0229   1  10   0.0004   0.0004   0.0010   0.0003  -0.0004  -0.0004   0.00   24.9
2020/09/16 11:57:16.000   47.409360788    8.497175532   571.0229   1  10   0.0004   0.0004   0.0010   0.0003  -0.0004  -0.0004   0.00   24.9
2020/09/16 11:57:17.000   47.409360788    8.497175531   571.0229   1  10   0.0004   0.0004   0.0010   0.0003  -0.0004  -0.0004   0.00   24.8
2020/09/16 11:57:18.000   47.409360788    8.497175532   571.0229   1  10   0.0004   0.0004   0.0010   0.0003  -0.0004  -0.0004   0.00   24.8
2020/09/16 11:57:19.000   47.409360788    8.497175531   571.0229   1  10   0.0004   0.0004   0.0010   0.0003  -0.0004  -0.0004   0.00   24.8
2020/09/16 11:57:20.000   47.409360788    8.497175531   571.0229   1  10   0.0004   0.0004   0.0010   0.0003  -0.0004  -0.0004   0.00   24.8
2020/09/16 11:57:21.000   47.409360788    8.497175531   571.0230   1  10   0.0004   0.0004   0.0010   0.0003  -0.0004  -0.0004   0.00   24.8
2020/09/16 11:57:22.000   47.409360788    8.497175531   571.0230   1  10   0.0004   0.0004   0.0010   0.0003  -0.0004  -0.0004   0.00   24.8
2020/09/16 11:57:23.000   47.409360788    8.497175531   571.0229   1  10   0.0004   0.0004   0.0010   0.0003  -0.0004  -0.0004   0.00   24.8
2020/09/16 11:57:24.000   47.409360788    8.497175531   571.0230   1  10   0.0004   0.0004   0.0010   0.0003  -0.0004  -0.0004   0.00   24.7
2020/09/16 11:57:25.000   47.409360788    8.497175531   571.0230   1  10   0.0004   0.0004   0.0010   0.0003  -0.0004  -0.0004   0.00   24.7
2020/09/16 11:57:26.000   47.409360788    8.497175531   571.0230   1  10   0.0004   0.0004   0.0010   0.0003  -0.0004  -0.0004   0.00   24.7
2020/09/16 11:57:27.000   47.409360788    8.497175531   571.0230   1  10   0.0004   0.0004   0.0010   0.0003  -0.0004  -0.0004   0.00   24.7
2020/09/16 11:57:28.000   47.409360788    8.497175531   571.0230   1  10   0.0004   0.0004   0.0010   0.0003  -0.0004  -0.0004   0.00   24.7
2020/09/16 11:57:29.000   47.409360788    8.497175531   571.0230   1  10   0.0004   0.0004   0.0010   0.0003  -0.0004  -0.0004   0.00   24.7
2020/09/16 11:57:30.000   47.409360788    8.497175531   571.0230   1  10   0.0004   0.0004   0.0010   0.0003  -0.0004  -0.0004   0.00   24.7
2020/09/16 11:57:31.000   47.409360788    8.497175531   571.0230   1  10   0.0004   0.0004   0.0010   0.0003  -0.0004  -0.0004   0.00   24.8
2020/09/16 11:57:32.000   47.409360788    8.497175531   571.0230   1  10   0.0004   0.0004   0.0010   0.0003  -0.0004  -0.0004   0.00   24.8
2020/09/16 11:57:33.000   47.409360788    8.497175531   571.0230   1  10   0.0004   0.0004   0.0010   0.0003  -0.0004  -0.0004   0.00   24.8
2020/09/16 11:57:34.000   47.409360788    8.497175531   571.0230   1  10   0.0004   0.0004   0.0010   0.0003  -0.0004  -0.0004   0.00   24.9
2020/09/16 11:57:35.000   47.409360788    8.497175531   571.0230   1  10   0.0004   0.0004   0.0010   0.0003  -0.0004  -0.0004   0.00   24.9
2020/09/16 11:57:36.000   47.409360788    8.497175531   571.0230   1  10   0.0004   0.0004   0.0010   0.0003  -0.0004  -0.0004   0.00   25.0
2020/09/16 11:57:37.000   47.409360788    8.497175531   571.0230   1  10   0.0004   0.0004   0.0010   0.0003  -0.0004  -0.0004   0.00   25.1
2020/09/16 11:57:38.000   47.409360788    8.497175531   571.0230   1  10   0.0004   0.0004   0.0010   0.0003  -0.0004  -0.0004   0.00   25.2
2020/09/16 11:57:39.000   47.409360788    8.497175531   571.0230   1  10   0.0004   0.0004   0.0010   0.0003  -0.0004  -0.0004   0.00   25.2
2020/09/16 11:57:40.000   47.409360788    8.497175531   571.0230   1  10   0.0004   0.0004   0.0010   0.0003  -0.0004  -0.0004   0.00   25.2
2020/09/16 11:57:41.000   47.409360787    8.497175531   571.0230   1  10   0.0004   0.0004   0.0010   0.0003  -0.0004  -0.0004   0.00   25.3
2020/09/16 11:57:42.000   47.409360787    8.497175531   571.0230   1  10   0.0004   0.0004   0.0010   0.0003  -0.0004  -0.0004   0.00   25.3
2020/09/16 11:57:43.000   47.409360788    8.497175531   571.0230   1  10   0.0004   0.0004   0.0010   0.0003  -0.0004  -0.0004   0.00   25.3
2020/09/16 11:57:44.000   47.409360787    8.497175531   571.0231   1  10   0.0004   0.0004   0.0010   0.0003  -0.0004  -0.0004   0.00   25.4
2020/09/16 11:57:45.000   47.409360787    8.497175531   571.0231   1  10   0.0004   0.0004   0.0010   0.0003  -0.0004  -0.0004   0.00   25.4
2020/09/16 11:57:46.000   47.409360787    8.497175531   571.0231   1  10   0.0004   0.0004   0.0010   0.0003  -0.0004  -0.0004   0.00   25.4
2020/09/16 11:57:47.000   47.409360787    8.497175531   571.0231   1  10   0.0004   0.0004   0.0010   0.0003  -0.0004  -0.0004   0.00   25.4
2020/09/16 11:57:48.000   47.409360787    8.497175531   571.0231   1  10   0.0004   0.0004   0.0010   0.0003  -0.0004  -0.0004   0.00   25.3
2020/09/16 11:57:49.000   47.409360787    8.497175531   571.0231   1  10   0.0004   0.0004   0.0010   0.0003  -0.0004  -0.0004   0.00   25.3
2020/09/16 11:57:50.000   47.409360787    8.497175531   571.0231   1  10   0.0004   0.0004   0.0010   0.0003  -0.0004  -0.0004   0.00   25.2
2020/09/16 11:57:51.000   47.409360787    8.497175531   571.0231   1  10   0.0004   0.0004   0.0010   0.0003  -0.0004  -0.0004   0.00   25.2
2020/09/16 11:57:52.000   47.409360787    8.497175531   571.0231   1  10   0.0004   0.0004   0.0010   0.0003  -0.0004  -0.0004   0.00   25.1
2020/09/16 11:57:53.000   47.409360787    8.497175531   571.0231   1  10   0.0004   0.0004   0.0010   0.0003  -0.0004  -0.0004   0.00   25.0
2020/09/16 11:57:54.000   47.409360787    8.497175531   571.0231   1  10   0.0004   0.0004   0.0010   0.0003  -0.0004  -0.0004   0.00   24.9
2020/09/16 11:57:55.000   47.409360787    8.497175531   571.0231   1  10   0.0004   0.0004   0.0010   0.0003  -0.0004  -0.0004   0.00   24.8
2020/09/16 11:57:56.000   47.409360787    8.497175531   571.0231   1  10   0.0004   0.0004   0.0010   0.0003  -0.0004  -0.0004   0.00   24.8
2020/09/16 11:57:57.000   47.409360787    8.497175531   571.0231   1  10   0.0004   0.0004   0.0010   0.0003  -0.0004  -0.0004   0.00   24.8
2020/09/16 11:57:58.000   47.409360787    8.497175531   571.0232   1  10   0.0004   0.0004   0.0010   0.0003  -0.0004  -0.0004   0.00   24.7
2020/09/16 11:57:59.000   47.409360787    8.497175531   571.0231   1  10   0.0004   0.0004   0.0010   0.0003  -0.0004  -0.0004   0.00   24.8
2020/09/16 11:58:00.000   47.409360787    8.497175531   571.0231   1  10   0.0004   0.0004   0.0010   0.0003  -0.0004  -0.0004   0.00   24.7
2020/09/16 11:58:01.000   47.409360787    8.497175531   571.0231   1  10   0.0004   0.0004   0.0010   0.0003  -0.0004  -0.0004   0.00   24.7
2020/09/16 11:58:02.000   47.409360787    8.497175531   571.0231   1  10   0.0004   0.0004   0.0010   0.0003  -0.0004  -0.0004   0.00   24.8
2020/09/16 11:58:03.000   47.409360787    8.497175531   571.0231   1  10   0.0004   0.0004   0.0010   0.0003  -0.0004  -0.0004   0.00   24.8
2020/09/16 11:58:04.000   47.409360787    8.497175531   571.0232   1  10   0.0004   0.0004   0.0010   0.0003  -0.0004  -0.0004   0.00   24.8
2020/09/16 11:58:05.000   47.409360787    8.497175531   571.0232   1  10   0.0004   0.0004   0.0010   0.0003  -0.0004  -0.0004   0.00   24.7
2020/09/16 11:58:06.000   47.409360787    8.497175531   571.0232   1  10   0.0004   0.0004   0.0010   0.0003  -0.0004  -0.0004   0.00   24.8
2020/09/16 11:58:07.000   47.409360787    8.497175531   571.0232   1  10   0.0004   0.0004   0.0010   0.0003  -0.0004  -0.0004   0.00   24.8
2020/09/16 11:58:08.000   47.409360787    8.497175531   571.0232   1  10   0.0004   0.0004   0.0010   0.0003  -0.0004  -0.0004   0.00   24.7
2020/09/16 11:58:09.000   47.409360787    8.497175531   571.0232   1  10   0.0004   0.0004   0.0010   0.0003  -0.0004  -0.0004   0.00   24.8
2020/09/16 11:58:10.000   47.409360787    8.497175531   571.0232   1  10   0.0004   0.0004   0.0010   0.0003  -0.0004  -0.0004   0.00   24.7
2020/09/16 11:58:11.000   47.409360787    8.497175531   571.0232   1  10   0.0004   0.0004   0.0010   0.0003  -0.0004  -0.0004   0.00   24.7
2020/09/16 11:58:12.000   47.409360787    8.497175531   571.0232   1  10   0.0004   0.0004   0.0010   0.0003  -0.0004  -0.0004   0.00   24.7
2020/09/16 11:58:13.000   47.409360787    8.497175531   571.0232   1  10   0.0004   0.0004   0.0010   0.0003  -0.0004  -0.0004   0.00   24.7
2020/09/16 11:58:14.000   47.409360787    8.497175531   571.0232   1  10   0.0004   0.0004   0.0010   0.0003  -0.0004  -0.0004   0.00   24.7
2020/09/16 11:58:15.000   47.409360787    8.497175531   571.0232   1  10   0.0004   0.0004   0.0010   0.0003  -0.0004  -0.0004   0.00   24.7
2020/09/16 11:58:16.000   47.409360787    8.497175531   571.0232   1  10   0.0004   0.0004   0.0010   0.0003  -0.0004  -0.0004   0.00   24.7
2020/09/16 11:58:17.000   47.409360787    8.497175531   571.0232   1  10   0.0004   0.0004   0.0010   0.0003  -0.0004  -0.0004   0.00   24.7
2020/09/16 11:58:18.000   47.409360787    8.497175531   571.0232   1  10   0.0004   0.0004   0.0010   0.0003  -0.0004  -0.0004   0.00   24.7
2020/09/16 11:58:19.000   47.409360787    8.497175531   571.0232   1  10   0.0004   0.0004   0.0010   0.0003  -0.0004  -0.0004   0.00   24.6
2020/09/16 11:58:20.000   47.409360787    8.497175531   571.0232   1  10   0.0004   0.0004   0.0010   0.0003  -0.0004  -0.0004   0.00   24.6
2020/09/16 11:58:21.000   47.409360787    8.497175531   571.0232   1  10   0.0004   0.0004   0.0010   0.0003  -0.0004  -0.0004   0.00   24.6
2020/09/16 11:58:22.000   47.409360787    8.497175531   571.0232   1  10   0.0004   0.0004   0.0010   0.0003  -0.0004  -0.0004   0.00   24.5
2020/09/16 11:58:23.000   47.409360787    8.497175531   571.0232   1  10   0.0004   0.0004   0.0010   0.0003  -0.0004  -0.0004   0.00   24.5
2020/09/16 11:58:24.000   47.409360787    8.497175531   571.0232   1  10   0.0004   0.0004   0.0010   0.0003  -0.0004  -0.0004   0.00   24.4
2020/09/16 11:58:25.000   47.409360787    8.497175531   571.0232   1  10   0.0004   0.0004   0.0010   0.0003  -0.0004  -0.0004   0.00   24.4
2020/09/16 11:58:26.000   47.409360787    8.497175531   571.0232   1  10   0.0004   0.0004   0.0010   0.0003  -0.0004  -0.0004   0.00   24.4
2020/09/16 11:58:27.000   47.409360787    8.497175531   571.0232   1  10   0.0004   0.0004   0.0010   0.0003  -0.0004  -0.0005   0.00   24.3
2020/09/16 11:58:28.000   47.409360787    8.497175531   571.0232   1  10   0.0004   0.0004   0.0010   0.0003  -0.0004  -0.0005   0.00   24.2
2020/09/16 11:58:29.000   47.409360787    8.497175531   571.0232   1  10   0.0004   0.0004   0.0010   0.0003  -0.0004  -0.0005   0.00   24.1
2020/09/16 11:58:30.000   47.409360787    8.497175531   571.0232   1  10   0.0004   0.0004   0.0010   0.0003  -0.0004  -0.0005   0.00   24.1
2020/09/16 11:58:31.000   47.409360787    8.497175531   571.0232   1  10   0.0004   0.0004   0.0010   0.0003  -0.0004  -0.0005   0.00   24.0
2020/09/16 11:58:32.000   47.409360787    8.497175531   571.0232   1  10   0.0004   0.0004   0.0010   0.0003  -0.0004  -0.0005   0.00   24.0
2020/09/16 11:58:33.000   47.409360787    8.497175531   571.0232   1  10   0.0004   0.0004   0.0010   0.0003  -0.0004  -0.0005   0.00   23.9
2020/09/16 11:58:34.000   47.409360787    8.497175531   571.0232   1  10   0.0004   0.0004   0.0010   0.0003  -0.0004  -0.0005   0.00   23.8
2020/09/16 11:58:35.000   47.409360787    8.497175531   571.0232   1  10   0.0004   0.0004   0.0010   0.0003  -0.0004  -0.0005   0.00   23.7
2020/09/16 11:58:36.000   47.409360787    8.497175531   571.0232   1  10   0.0004   0.0004   0.0010   0.0003  -0.0004  -0.0005   0.00   23.7
2020/09/16 11:58:37.000   47.409360787    8.497175531   571.0232   1  10   0.0004   0.0004   0.0010   0.0003  -0.0004  -0.0005   0.00   23.7
2020/09/16 11:58:38.000   47.409360787    8.497175531   571.0232   1  10   0.0004   0.0004   0.0010   0.0003  -0.0004  -0.0005   0.00   23.7
2020/09/16 11:58:39.000   47.409360787    8.497175531   571.0232   1  10   0.0004   0.0004   0.0010   0.0003  -0.0004  -0.0005   0.00   23.6
2020/09/16 11:58:40.000   47.409360787    8.497175531   571.0232   1  10   0.0004   0.0004   0.0010   0.0003  -0.0004  -0.0005   0.00   23.6
2020/09/16 11:58:41.000   47.409360787    8.497175531   571.0232   1  10   0.0004   0.0004   0.0010   0.0003  -0.0004  -0.0005   0.00   23.6
2020/09/16 11:58:42.000   47.409360787    8.497175531   571.0232   1  10   0.0004   0.0004   0.0010   0.0003  -0.0004  -0.0005   0.00   23.7
2020/09/16 11:58:43.000   47.409360787    8.497175531   571.0232   1  10   0.0004   0.0004   0.0010   0.0003  -0.0004  -0.0005   0.00   23.7
2020/09/16 11:58:44.000   47.409360787    8.497175531   571.0232   1  10   0.0004   0.0004   0.0010   0.0003  -0.0004  -0.0005   0.00   23.7
2020/09/16 11:58:45.000   47.409360787    8.497175531   571.0232   1  10   0.0004   0.0004   0.0010   0.0003  -0.0004  -0.0005   0.00   23.7
2020/09/16 11:58:46.000   47.409360787    8.497175530   571.0232   1  10   0.0004   0.0004   0.0010   0.0003  -0.0004  -0.0005   0.00   23.7
2020/09/16 11:58:47.000   47.409360787    8.497175531   571.0232   1  10   0.0004   0.0004   0.0010   0.0003  -0.0004  -0.0005   0.00   23.7
2020/09/16 11:58:48.000   47.409360787    8.497175531   571.0232   1  10   0.0004   0.0004   0.0010   0.0003  -0.0004  -0.0005   0.00   23.6
2020/09/16 11:58:49.000   47.409360787    8.497175531   571.0232   1  10   0.0004   0.0004   0.0010   0.0003  -0.0004  -0.0005   0.00   23.6
2020/09/16 11:58:50.000   47.409360787    8.497175530   571.0233   1  10   0.0004   0.0004   0.0010   0.0003  -0.0004  -0.0005   0.00   23.6
2020/09/16 11:58:51.000   47.409360787    8.497175530   571.0233   1  10   0.0004   0.0004   0.0010   0.0003  -0.0004  -0.0005   0.00   23.6
2020/09/16 11:58:52.000   47.409360785    8.497176750   571.0284   2  11   0.0133   0.0212   0.0164  -0.0084   0.0065  -0.0056   0.00    1.1
2020/09/16 11:58:53.000   47.409360778    8.497176740   571.0291   2  11   0.0133   0.0211   0.0163  -0.0084   0.0065  -0.0056   0.00    1.2
2020/09/16 11:58:54.000   47.409360772    8.497176733   571.0296   2  11   0.0133   0.0211   0.0162  -0.0084   0.0064  -0.0055   0.00    1.3
2020/09/16 11:58:55.000   47.409360763    8.497176726   571.0303   2  11   0.0132   0.0210   0.0162  -0.0084   0.0064  -0.0055   0.00    1.4
2020/09/16 11:58:56.000   47.409360757    8.497176728   571.0311   2  11   0.0132   0.0210   0.0161  -0.0084   0.0064  -0.0055   0.00    1.5
2020/09/16 11:58:57.000   47.409360752    8.497176725   571.0318   2  11   0.0132   0.0210   0.0161  -0.0084   0.0064  -0.0055   0.00    1.6
2020/09/16 11:58:58.000   47.409360746    8.497176726   571.0327   2  11   0.0131   0.0209   0.0160  -0.0084   0.0064  -0.0055   0.00    1.7
2020/09/16 11:58:59.000   47.409360739    8.497176730   571.0336   2  11   0.0131   0.0209   0.0160  -0.0084   0.0064  -0.0055   0.00    1.8
2020/09/16 11:59:00.000   47.409360734    8.497176736   571.0344   2  11   0.0131   0.0208   0.0159  -0.0084   0.0064  -0.0055   0.00    1.9
2020/09/16 11:59:01.000   47.409360728    8.497176744   571.0352   2  11   0.0130   0.0208   0.0158  -0.0084   0.0064  -0.0055   0.00    2.0
2020/09/16 11:59:02.000   47.409360725    8.497176739   571.0362   2  11   0.0130   0.0207   0.0158  -0.0085   0.0064  -0.0054   0.00    2.1
2020/09/16 11:59:03.000   47.409360720    8.497176742   571.0371   2  11   0.0130   0.0207   0.0157  -0.0085   0.0064  -0.0054   0.00    2.2
2020/09/16 11:59:04.000   47.409360715    8.497176746   571.0377   2  11   0.0129   0.0207   0.0157  -0.0085   0.0064  -0.0054   0.00    2.3
2020/09/16 11:59:05.000   47.409360710    8.497176750   571.0384   2  11   0.0129   0.0206   0.0156  -0.0085   0.0064  -0.0054   0.00    2.4
2020/09/16 11:59:06.000   47.409360705    8.497176754   571.0392   2  11   0.0129   0.0206   0.0156  -0.0085   0.0064  -0.0054   0.00    2.4
2020/09/16 11:59:07.000   47.409360698    8.497176765   571.0402   2  11   0.0128   0.0205   0.0155  -0.0085   0.0064  -0.0054   0.00    2.5
2020/09/16 11:59:08.000   47.409360697    8.497176766   571.0408   2  11   0.0128   0.0205   0.0155  -0.0085   0.0064  -0.0054   0.00    2.6
2020/09/16 11:59:09.000   47.409360693    8.497176773   571.0414   2  11   0.0128   0.0205   0.0154  -0.0085   0.0064  -0.0054   0.00    2.7
2020/09/16 11:59:10.000   47.409360689    8.497176775   571.0422   2  11   0.0127   0.0204   0.0154  -0.0085   0.0064  -0.0053   0.00    2.8
2020/09/16 11:59:11.000   47.409360684    8.497176783   571.0430   2  11   0.0127   0.0204   0.0153  -0.0085   0.0064  -0.0053   0.00    2.9
2020/09/16 11:59:12.000   47.409360682    8.497176785   571.0434   2  11   0.0127   0.0203   0.0152  -0.0085   0.0064  -0.0053   0.00    2.9
2020/09/16 11:59:13.000   47.409360786    8.497175525   571.0217   1  11   0.0004   0.0005   0.0011   0.0003  -0.0005  -0.0005   0.00    3.0
2020/09/16 11:59:14.000   47.409360786    8.497175525   571.0217   1  11   0.0004   0.0005   0.0011   0.0003  -0.0005  -0.0005   0.00    3.1
2020/09/16 11:59:15.000   47.409360786    8.497175525   571.0218   1  11   0.0004   0.0005   0.0011   0.0003  -0.0005  -0.0005   0.00    3.2
2020/09/16 11:59:16.000   47.409360786    8.497175525   571.0218   1  11   0.0004   0.0005   0.0011   0.0003  -0.0005  -0.0005   0.00    3.3
2020/09/16 11:59:17.000   47.409360786    8.497175524   571.0217   1  11   0.0004   0.0005   0.0011   0.0003  -0.0005  -0.0005   0.00    3.3
2020/09/16 11:59:18.000   47.409360786    8.497175524   571.0217   1  11   0.0004   0.0005   0.0011   0.0003  -0.0005  -0.0005   0.00    3.4
2020/09/16 11:59:19.000   47.409360786    8.497175524   571.0217   1  11   0.0004   0.0005   0.0011   0.0003  -0.0005  -0.0005   0.00    3.5
2020/09/16 11:59:20.000   47.409360786    8.497175524   571.0217   1  11   0.0004   0.0005   0.0011   0.0003  -0.0005  -0.0005   0.00    3.6
2020/09/16 11:59:21.000   47.409360786    8.497175524   571.0217   1  11   0.0004   0.0005   0.0011   0.0003  -0.0005  -0.0005   0.00    3.6
2020/09/16 11:59:22.000   47.409360786    8.497175524   571.0217   1  11   0.0004   0.0005   0.0011   0.0003  -0.0005  -0.0005   0.00    3.7
2020/09/16 11:59:23.000   47.409360786    8.497175524   571.0217   1  11   0.0004   0.0005   0.0011   0.0003  -0.0005  -0.0005   0.00    3.8
2020/09/16 11:59:24.000   47.409360786    8.497175524   571.0217   1  11   0.0004   0.0005   0.0011   0.0003  -0.0005  -0.0005   0.00    3.8
2020/09/16 11:59:25.000   47.409360786    8.497175523   571.0216   1  11   0.0004   0.0005   0.0011   0.0003  -0.0005  -0.0005   0.00    3.9
2020/09/16 11:59:26.000   47.409360786    8.497175523   571.0216   1  11   0.0004   0.0005   0.0011   0.0003  -0.0005  -0.0005   0.00    3.9
2020/09/16 11:59:27.000   47.409360786    8.497175523   571.0215   1  11   0.0004   0.0005   0.0011   0.0003  -0.0005  -0.0005   0.00    4.0
2020/09/16 11:59:28.000   47.409360786    8.497175523   571.0215   1  11   0.0004   0.0005   0.0011   0.0003  -0.0005  -0.0005   0.00    4.0
2020/09/16 11:59:29.000   47.409360786    8.497175523   571.0215   1  11   0.0004   0.0005   0.0011   0.0003  -0.0005  -0.0005   0.00    4.1
2020/09/16 11:59:30.000   47.409360786    8.497175523   571.0215   1  11   0.0004   0.0005   0.0011   0.0003  -0.0005  -0.0005   0.00    4.1
2020/09/16 11:59:31.000   47.409360786    8.497175523   571.0215   1  11   0.0004   0.0005   0.0011   0.0003  -0.0005  -0.0005   0.00    4.2
2020/09/16 11:59:32.000   47.409360786    8.497175523   571.0214   1  11   0.0004   0.0005   0.0011   0.0003  -0.0005  -0.0005   0.00    4.2
2020/09/16 11:59:33.000   47.409360786    8.497175523   571.0214   1  11   0.0004   0.0005   0.0010   0.0003  -0.0005  -0.0005   0.00    4.2
2020/09/16 11:59:34.000   47.409360786    8.497175522   571.0214   1  11   0.0004   0.0005   0.0010   0.0003  -0.0005  -0.0005   0.00    4.3
2020/09/16 11:59:35.000   47.409360785    8.497175522   571.0214   1  11   0.0004   0.0005   0.0010   0.0003  -0.0004  -0.0005   0.00    4.3
2020/09/16 11:59:36.000   47.409360785    8.497175522   571.0213   1  11   0.0004   0.0005   0.0010   0.0003  -0.0004  -0.0005   0.00    4.3
2020/09/16 11:59:37.000   47.409360785    8.497175522   571.0213   1  11   0.0004   0.0005   0.0010   0.0003  -0.0004  -0.0005   0.00    4.4
2020/09/16 11:59:38.000   47.409360785    8.497175522   571.0213   1  11   0.0004   0.0005   0.0010   0.0003  -0.0004  -0.0005   0.00    4.4
2020/09/16 11:59:39.000   47.409360785    8.497175522   571.0212   1  11   0.0004   0.0005   0.0010   0.0003  -0.0004  -0.0005   0.00    4.4
2020/09/16 11:59:40.000   47.409360785    8.497175522   571.0212   1  11   0.0004   0.0005   0.0010   0.0003  -0.0004  -0.0005   0.00    4.4
2020/09/16 11:59:41.000   47.409360785    8.497175522   571.0212   1  11   0.0004   0.0005   0.0010   0.0003  -0.0004  -0.0005   0.00    4.5
2020/09/16 11:59:42.000   47.409360785    8.497175522   571.0211   1  11   0.0004   0.0005   0.0010   0.0003  -0.0004  -0.0005   0.00    4.5
2020/09/16 11:59:43.000   47.409360785    8.497175522   571.0211   1  11   0.0004   0.0005   0.0010   0.0003  -0.0004  -0.0005   0.00    4.5
2020/09/16 11:59:44.000   47.409360785    8.497175522   571.0211   1  11   0.0004   0.0005   0.0010   0.0003  -0.0004  -0.0005   0.00    4.5
2020/09/16 11:59:45.000   47.409360785    8.497175521   571.0211   1  11   0.0004   0.0005   0.0010   0.0003  -0.0004  -0.0005   0.00    4.5
2020/09/16 11:59:46.000   47.409360788    8.497175524   571.0204   1  11   0.0004   0.0005   0.0010   0.0003  -0.0004  -0.0005   0.00    4.5
2020/09/16 11:59:47.000   47.409360787    8.497175523   571.0204   1  11   0.0004   0.0005   0.0010   0.0003  -0.0004  -0.0005   0.00    4.6
