     3.00           OBSERVATION DATA    M: Mixed            RINEX VERSION / TYPE
sbp2rinex 1.1                           20200916 122355 UTC PGM / RUN BY / DATE 
log: piksi/base_station_receiver_0_2020_16_09_11_52_33.sbp  COMMENT             
format: Swift Navigation SBP                                COMMENT             
                                                            MARKER NAME         
                                                            MARKER NUMBER       
                                                            MARKER TYPE         
                                                            OBSERVER / AGENCY   
                                                            REC # / TYPE / VERS 
                                                            ANT # / TYPE        
        0.0000        0.0000        0.0000                  APPROX POSITION XYZ 
        0.0000        0.0000        0.0000                  ANTENNA: DELTA H/E/N
G    8 C1C L1C D1C S1C C2S L2S D2S S2S                      SYS / # / OBS TYPES 
R    8 C1C L1C D1C S1C C2C L2C D2C S2C                      SYS / # / OBS TYPES 
  2020     9    16    11    52   51.0000000     GPS         TIME OF FIRST OBS   
  2020     9    16    11    59   50.0000000     GPS         TIME OF LAST OBS    
                                                            END OF HEADER       
> 2020  9 16 11 52 51.0000000  0 20       0.000000000000
G19                                                                                                                                
G 3  20419324.760   107304278.961         785.875          53.500    20419326.820    83613736.129         611.770          51.750  
G 4  22794169.020   119784167.184        3436.027          48.750    22794169.300    93338316.168        2677.547          47.250  
G11  21914827.480   115163192.016       -3339.426          51.250                                                                  
G22  20669217.700   108617473.535        -630.293          53.750                                                                  
G 1  20387276.460   107135858.625       -1253.645          53.750    20387277.680    83482513.840        -977.348          51.250  
G17  22629738.800   118920077.590        1863.871          49.000    22629739.140    92665005.621        1452.180          47.750  
R 1  20646765.560   110368825.367       -2993.137          49.250    20646771.820    85842422.137       -2327.684          45.000  
R18  22474994.700   119973082.918        3968.531          50.750    22475001.140    93312400.906        3086.473          50.250  
R24  20380260.380   108982457.316       -2959.285          53.750    20380265.140    84764128.922       -2301.582          52.250  
R23  23466493.820   125529950.609       -4349.594          44.750    23466502.080    97634409.109       -3381.543          44.000  
R17  19247539.340   102997502.004        1122.320          53.500    19247545.020    80109167.000         874.219          52.250  
R 3  23374932.800   125127893.227        3899.793          46.250    23374939.780    97321703.738        3033.090          46.000  
G 9                                                                                                                                
G27                                                                                                                                
G28                                                                                                                                
G14                                                                                                                                
G12                                                                                                                                
G 7                                                                                                                                
G26                                                                                                                                
> 2020  9 16 11 52 52.0000000  0 20       0.000000000000
G19                                                                                                                                
G 3  20419174.720   107303490.523         785.367          53.500    20419176.660    83613121.758         612.129          51.500  
G 4  22793514.780   119780728.387        3434.965          48.750    22793514.680    93335636.586        2674.953          47.000  
G11  21915462.400   115166528.684       -3340.383          51.500                                                                  
G22  20669337.160   108618101.445        -630.875          53.750                                                                  
G 1  20387514.420   107137109.684       -1254.508          54.000    20387515.780    83483488.688        -977.281          51.250  
G17  22629383.660   118918211.508        1862.828          49.000    22629384.020    92663551.539        1451.641          47.750  
R 1  20647324.260   110371815.121       -2992.477          49.500    20647330.640    85844747.504       -2327.000          45.250  
R18  22474250.680   119969111.594        3967.855          50.500    22474256.800    93309312.113        3086.129          49.750  
R24  20380813.480   108985414.422       -2960.402          54.000    20380818.260    84766428.883       -2302.746          52.250  
R23  23467306.060   125534296.691       -4348.309          44.500    23467315.320    97637789.379       -3383.586          43.750  
R17  19247329.360   102996376.379        1122.047          53.500    19247334.320    80108291.508         873.586          52.000  
R 3  23374204.600   125123989.719        3900.504          46.500    23374210.940    97318667.668        3034.473          46.000  
G 9                                                                                                                                
G27                                                                                                                                
G28                                                                                                                                
G14                                                                                                                                
G12                                                                                                                                
G 7                                                                                                                                
G26                                                                                                                                
> 2020  9 16 11 52 53.0000000  0 20       0.000000000000
G19                                                                                                                                
G 3  20419024.660   107302702.051         785.441          53.500    20419026.440    83612507.371         611.844          51.500  
G 4  22792860.240   119777289.402        3435.605          48.500    22792860.240    93332956.867        2678.297          47.250  
G11  21916097.280   115169865.262       -3340.801          51.250                                                                  
G22  20669456.820   108618729.254        -631.039          54.000                                                                  
G 1  20387752.440   107138360.758       -1254.059          54.250    20387754.000    83484463.559        -976.355          51.250  
G17  22629028.340   118916345.492        1863.629          49.250    22629028.860    92662097.504        1451.562          47.750  
R 1  20647883.780   110374804.801       -2992.141          49.500    20647890.580    85847072.793       -2327.637          45.250  
R18  22473506.680   119965140.043        3969.641          50.500    22473512.640    93306223.145        3085.520          49.500  
R24  20381366.420   108988371.664       -2960.430          54.000    20381371.520    84768728.965       -2302.082          52.500  
R23  23468118.060   125538642.484       -4349.422          44.000    23468128.320    97641169.430       -3383.812          43.500  
R17  19247119.400   102995251.082        1122.215          53.500    19247124.540    80107416.281         872.875          52.000  
R 3  23373475.020   125120085.926        3901.355          46.250    23373482.080    97315631.402        3035.867          46.250  
G 9                                                                                                                                
G27                                                                                                                                
G28                                                                                                                                
G14                                                                                                                                
G12                                                                                                                                
G 7                                                                                                                                
G26                                                                                                                                
> 2020  9 16 11 52 54.0000000  0 20       0.000000000000
G19                                                                                                                                
G 3  20418874.820   107301914.414         785.266          53.500    20418876.540    83611893.625         611.195          51.500  
G 4  22792205.780   119773851.121        3434.766          48.750    22792205.940    93330277.688        2678.203          47.250  
G11  21916732.420   115173202.629       -3340.336          51.250                                                                  
G22  20669576.580   108619357.840        -631.430          54.000                                                                  
G 1  20387990.740   107139612.727       -1254.734          54.000    20387992.240    83485439.117        -977.723          51.500  
G17  22628673.280   118914480.391        1862.938          49.000    22628673.740    92660644.180        1452.805          47.750  
R 1  20648443.600   110377795.285       -2994.406          49.500    20648450.060    85849398.738       -2329.367          45.250  
R18  22472762.700   119961169.168        3968.594          50.750    22472769.140    93303134.668        3086.438          50.500  
R24  20381919.740   108991329.930       -2960.840          53.750    20381925.040    84771029.836       -2303.105          52.750  
R23  23468930.360   125542988.887       -4348.172          44.000    23468939.280    97644549.949       -3383.082          43.000  
R17  19246909.280   102994126.988        1120.609          53.750    19246914.480    80106541.984         872.324          52.250  
R 3  23372746.300   125116182.777        3901.438          46.250    23372753.380    97312595.574        3034.547          46.500  
G 9                                                                                                                                
G27                                                                                                                                
G28                                                                                                                                
G14                                                                                                                                
G12                                                                                                                                
G 7                                                                                                                                
G26                                                                                                                                
> 2020  9 16 11 52 55.0000000  0 20       0.000000000000
G19                                                                                                                                
G 3  20418725.140   107301127.367         784.793          53.500    20418726.560    83611280.352         610.617          51.500  
G 4  22791551.600   119770413.266        3436.605          48.750    22791551.560    93327598.844        2678.363          46.750  
G11  21917367.600   115176540.523       -3340.664          51.250                                                                  
G22  20669696.280   108619986.953        -632.141          53.750                                                                  
G 1  20388229.240   107140865.348       -1255.387          54.000    20388230.600    83486415.180        -978.082          51.250  
G17  22628318.360   118912615.992        1862.398          49.000    22628319.120    92659191.402        1450.859          47.500  
R 1  20649003.460   110380786.297       -2993.648          49.750    20649009.980    85851725.082       -2326.793          45.250  
R18  22472018.820   119957198.684        3967.594          50.750    22472024.560    93300046.504        3085.867          50.000  
R24  20382473.080   108994288.941       -2961.527          54.000    20382478.240    84773331.281       -2303.742          52.750  
R23  23469743.440   125547335.645       -4348.656          43.750    23469752.880    97647930.754       -3382.074          42.750  
R17  19246699.540   102993003.848        1120.129          53.750    19246704.380    80105668.426         871.582          52.250  
R 3  23372017.400   125112280.035        3900.340          46.500    23372023.900    97309560.125        3033.461          46.250  
G 9                                                                                                                                
G27                                                                                                                                
G28                                                                                                                                
G14                                                                                                                                
G12                                                                                                                                
G 7                                                                                                                                
G26                                                                                                                                
> 2020  9 16 11 52 56.0000000  0 20       0.000000000000
G19                                                                                                                                
G 3  20418575.460   107300340.887         784.438          53.250    20418576.740    83610667.496         611.230          51.750  
G 4  22790897.220   119766975.828        3434.945          48.250    22790897.400    93324920.316        2675.551          47.250  
G11  21918002.860   115179878.910       -3341.062          51.000                                                                  
G22  20669816.160   108620616.551        -632.102          53.500                                                                  
G 1  20388467.800   107142118.578       -1254.840          53.750    20388469.080    83487391.727        -977.738          51.500  
G17  22627963.700   118910752.227        1861.160          48.500    22627964.660    92657739.117        1450.887          48.000  
R 1  20649562.800   110383777.816       -2993.645          49.750    20649569.300    85854051.828       -2326.715          45.250  
R18  22471274.520   119953228.539        3968.070          50.750    22471280.540    93296958.617        3086.289          50.000  
R24  20383026.480   108997248.691       -2962.020          54.250    20383031.940    84775633.305       -2304.305          52.750  
R23  23470555.840   125551682.695       -4349.578          43.750    23470563.940    97651311.785       -3382.508          42.750  
R17  19246489.900   102991881.586        1119.539          53.750    19246494.640    80104795.551         870.012          52.250  
R 3  23371289.100   125108377.637        3900.027          46.500    23371295.040    97306524.930        3033.379          46.000  
G 9                                                                                                                                
G27                                                                                                                                
G28                                                                                                                                
G14                                                                                                                                
G12                                                                                                                                
G 7                                                                                                                                
G26                                                                                                                                
> 2020  9 16 11 52 57.0000000  0 20       0.000000000000
G19                                                                                                                                
G 3  20418425.960   107299554.508         782.957          53.250    20418427.080    83610054.738         610.406          51.750  
G 4  22790243.240   119763538.363        3434.758          48.250    22790243.100    93322241.770        2675.055          47.000  
G11  21918638.000   115183217.355       -3340.094          50.750                                                                  
G22  20669936.000   108621246.199        -632.820          53.250                                                                  
G 1  20388706.620   107143371.996       -1256.512          54.000    20388707.680    83488368.406        -979.762          51.750  
G17  22627609.080   118908888.691        1860.418          48.500    22627609.960    92656287.016        1450.422          47.750  
R 1  20650122.940   110386769.406       -2993.078          49.750    20650129.080    85856378.613       -2331.375          45.250  
R18  22470530.880   119949258.301        3967.590          50.750    22470537.060    93293870.645        3085.898          50.000  
R24  20383579.980   109000208.746       -2963.133          54.250    20383585.360    84777935.574       -2304.930          52.500  
R23  23471367.920   125556029.617       -4351.406          43.750    23471375.700    97654692.723       -3384.598          42.750  
R17  19246279.880   102990759.766        1117.938          53.750    19246284.760    80103923.027         870.820          52.250  
R 3  23370560.500   125104475.121        3899.273          46.500    23370566.960    97303489.672        3033.965          46.500  
G 9                                                                                                                                
G27                                                                                                                                
G28                                                                                                                                
G14                                                                                                                                
G12                                                                                                                                
G 7                                                                                                                                
G26                                                                                                                                
> 2020  9 16 11 52 58.0000000  0 20       0.000000000000
G19                                                                                                                                
G 3  20418276.460   107298768.645         782.785          53.250    20418277.480    83609442.383         609.941          51.750  
G 4  22789589.200   119760101.230        3435.434          48.250    22789588.660    93319563.484        2677.383          46.750  
G11  21919273.260   115186556.246       -3341.316          50.750                                                                  
G22  20670055.920   108621876.281        -632.949          53.500                                                                  
G 1  20388945.420   107144625.957       -1256.535          54.000    20388946.300    83489345.535        -979.426          51.500  
G17  22627254.800   118907025.742        1859.430          48.750    22627255.300    92654835.367        1448.418          47.750  
R 1  20650682.580   110389761.445       -2994.375          50.000    20650688.840    85858705.754       -2330.551          45.500  
R18  22469787.260   119945288.379        3967.543          51.000    22469793.460    93290782.934        3085.418          50.000  
R24  20384133.280   109003169.477       -2963.766          54.250    20384139.260    84780238.367       -2305.336          52.750  
R23  23472179.980   125560376.824       -4351.395          43.250    23472188.620    97658073.832       -3382.887          42.500  
R17  19246070.220   102989638.816        1118.016          53.750    19246075.440    80103051.172         869.402          52.250  
R 3  23369832.100   125100572.902        3899.395          46.750    23369838.280    97300454.609        3032.961          46.500  
G 9                                                                                                                                
G27                                                                                                                                
G28                                                                                                                                
G14                                                                                                                                
G12                                                                                                                                
G 7                                                                                                                                
G26                                                                                                                                
> 2020  9 16 11 52 59.0000000  0 20       0.000000000000
G19                                                                                                                                
G 3  20418126.860   107297982.520         781.980          53.250    20418127.840    83608829.820         609.625          51.500  
G 4  22788934.940   119756663.723        3433.211          48.000    22788934.040    93316884.918        2677.430          46.500  
G11  21919908.220   115189894.840       -3341.742          50.500                                                                  
G22  20670175.780   108622506.055        -632.805          53.250                                                                  
G 1  20389184.080   107145879.746       -1257.379          53.750    20389184.900    83490322.504        -980.480          51.500  
G17  22626900.340   118905162.648        1859.047          48.500    22626900.740    92653383.609        1448.637          47.750  
R 1  20651241.720   110392753.176       -2994.984          50.000    20651248.420    85861032.660       -2330.039          45.250  
R18  22469043.000   119941318.012        3967.492          50.750    22469049.280    93287694.871        3086.207          50.000  
R24  20384687.020   109006130.102       -2963.922          54.250    20384692.980    84782541.078       -2305.316          52.750  
R23  23472992.040   125564723.488       -4351.449          44.500    23473000.660    97661454.594       -3384.980          42.000  
R17  19245860.280   102988517.969        1116.918          53.750    19245866.100    80102179.414         868.875          52.250  
R 3  23369103.500   125096670.215        3900.281          46.750    23369109.600    97297419.184        3032.430          46.250  
G 9                                                                                                                                
G27                                                                                                                                
G28                                                                                                                                
G14                                                                                                                                
G12                                                                                                                                
G 7                                                                                                                                
G26                                                                                                                                
> 2020  9 16 11 53  0.0000000  0 20       0.000000000000
G19                                                                                                                                
G 3  20417978.060   107297200.273         782.305          53.250    20417979.060    83608220.277         609.758          51.500  
G 4  22788281.660   119753229.922        3433.523          47.750    22788280.400    93314209.230        2674.887          46.500  
G11  21920544.260   115193237.238       -3342.902          50.250                                                                  
G22  20670296.320   108623139.633        -633.750          53.250                                                                  
G 1  20389423.420   107147137.461       -1258.840          53.750    20389424.180    83491302.543        -980.293          51.750  
G17  22626546.820   118903303.500        1859.980          48.500    22626546.800    92651934.918        1448.355          47.750  
R 1  20651801.800   110395748.773       -2996.184          49.500    20651809.160    85863362.566       -2330.465          45.000  
R18  22468300.040   119937351.367        3967.465          50.500    22468306.120    93284609.699        3085.570          49.750  
R24  20385241.220   109009094.809       -2964.523          53.750    20385247.700    84784846.957       -2306.801          52.750  
R23  23473805.280   125569073.832       -4350.621          43.000    23473814.640    97664838.195       -3382.023          41.750  
R17  19245651.520   102987401.414        1116.512          53.250    19245657.640    80101310.984         868.164          52.000  
R 3  23368375.720   125092771.230        3899.098          46.500    23368381.260    97294386.656        3031.633          45.750  
G 9                                                                                                                                
G27                                                                                                                                
G28                                                                                                                                
G14                                                                                                                                
G12                                                                                                                                
G 7                                                                                                                                
G26                                                                                                                                
> 2020  9 16 11 53  1.0000000  0 20       0.000000000000
G19                                                                                                                                
G 3  20417828.940   107296416.043         781.324          53.250    20417829.820    83607609.191         609.770          51.500  
G 4  22787627.600   119749794.016        3432.984          47.750    22787626.200    93311531.895        2675.965          46.250  
G11  21921179.780   115196577.613       -3343.344          50.250                                                                  
G22  20670416.520   108623771.180        -634.078          53.250                                                                  
G 1  20389662.520   107148393.258       -1257.855          54.000    20389663.260    83492281.090        -980.520          51.750  
G17  22626192.900   118901442.465        1857.336          48.750    22626192.540    92650484.773        1449.324          47.750  
R 1  20652361.660   110398742.316       -2995.008          49.250    20652368.700    85865690.875       -2330.230          45.000  
R18  22467555.920   119933382.531        3965.699          50.250    22467562.500    93281522.820        3085.617          49.750  
R24  20385795.180   109012057.707       -2965.605          53.750    20385801.820    84787151.434       -2306.742          52.750  
R23  23474617.640   125573421.895       -4350.660          43.250    23474626.840    97668220.023       -3385.188          41.500  
R17  19245442.900   102986283.191        1116.109          53.250    19245448.980    80100441.250         868.348          52.000  
R 3  23367647.360   125088870.039        3898.582          46.250    23367651.800    97291352.406        3032.664          45.750  
G 9                                                                                                                                
G27                                                                                                                                
G28                                                                                                                                
G14                                                                                                                                
G12                                                                                                                                
G 7                                                                                                                                
G26                                                                                                                                
> 2020  9 16 11 53  2.0000000  0 20       0.000000000000
G19                                                                                                                                
G 3  20417679.800   107295632.383         781.094          53.750    20417680.680    83606998.543         608.441          51.750  
G 4  22786973.720   119746358.512        3432.629          48.250    22786972.480    93308854.879        2673.934          46.500  
G11  21921815.420   115199918.473       -3342.535          50.750                                                                  
G22  20670536.940   108624403.207        -634.293          54.000                                                                  
G 1  20389901.800   107149649.676       -1259.668          54.500    20389902.480    83493260.117        -981.176          52.000  
G17  22625838.880   118899582.086        1857.480          49.000    22625838.240    92649035.121        1447.344          47.750  
R 1  20652921.280   110401736.363       -2995.469          49.000    20652928.760    85868019.566       -2330.562          45.000  
R18  22466812.200   119929414.043        3965.949          50.000    22466819.060    93278436.219        3083.871          49.750  
R24  20386349.860   109015021.336       -2966.645          53.750    20386356.000    84789456.492       -2306.492          52.750  
R23  23475430.220   125577770.262       -4351.973          43.000    23475439.660    97671602.082       -3384.074          41.750  
R17  19245234.120   102985165.855        1114.250          53.250    19245240.100    80099572.215         866.801          52.250  
R 3  23366919.700   125084969.215        3898.246          46.250    23366922.820    97288318.434        3031.898          45.750  
G 9                                                                                                                                
G27                                                                                                                                
G28                                                                                                                                
G14                                                                                                                                
G12                                                                                                                                
G 7                                                                                                                                
G26                                                                                                                                
> 2020  9 16 11 53  3.0000000  0 20       0.000000000000
G19                                                                                                                                
G 3  20417530.700   107294848.602         781.004          54.250    20417531.500    83606387.805         608.602          51.750  
G 4  22786319.660   119742922.734        3431.727          48.500    22786318.520    93306177.656        2675.008          46.250  
G11  21922450.980   115203259.191       -3343.488          51.250                                                                  
G22  20670657.140   108625035.062        -635.680          54.250                                                                  
G 1  20390140.840   107150906.039       -1258.824          55.000    20390141.740    83494239.098        -982.570          52.000  
G17  22625485.000   118897721.684        1856.984          49.750    22625484.340    92647585.453        1447.199          47.750  
R 1  20653481.300   110404730.246       -2997.660          49.250    20653488.220    85870348.148       -2330.180          45.000  
R18  22466068.760   119925445.238        3965.129          50.250    22466075.940    93275349.371        3084.094          49.750  
R24  20386903.940   109017985.016       -2967.598          54.000    20386910.340    84791761.582       -2307.500          52.750  
R23  23476243.160   125582118.270       -4350.000          43.250    23476252.620    97674983.844       -3384.613          41.750  
R17  19245025.280   102984048.762        1113.453          53.500    19245031.260    80098703.352         866.336          52.250  
R 3  23366190.500   125081068.074        3897.695          46.250    23366194.100    97285284.223        3032.340          45.500  
G 9                                                                                                                                
G27                                                                                                                                
G28                                                                                                                                
G14                                                                                                                                
G12                                                                                                                                
G 7                                                                                                                                
G26                                                                                                                                
> 2020  9 16 11 53  4.0000000  0 20       0.000000000000
G19                                                                                                                                
G 3  20417381.540   107294064.613         780.098          54.500    20417382.380    83605776.906         607.988          51.500  
G 4  22785665.580   119739486.625        3432.164          48.500    22785664.380    93303500.160        2672.945          46.000  
G11  21923086.620   115206599.633       -3343.180          51.250                                                                  
G22  20670777.380   108625666.645        -634.785          54.500                                                                  
G 1  20390379.840   107152162.246       -1259.703          55.250    20390380.760    83495217.957        -981.332          51.750  
G17  22625130.840   118895861.148        1856.387          49.500    22625130.340    92646135.695        1448.148          47.750  
R 1  20654041.620   110407723.855       -2997.762          49.250    20654048.260    85872676.508       -2331.461          45.000  
R18  22465325.040   119921476.012        3964.992          50.250    22465332.020    93272262.191        3084.680          49.750  
R24  20387457.960   109020948.672       -2967.910          54.000    20387464.860    84794066.633       -2307.594          53.000  
R23  23477056.120   125586465.754       -4351.727          44.000    23477065.820    97678365.227       -3385.246          41.750  
R17  19244816.680   102982931.824        1112.984          53.500    19244822.760    80097834.633         864.504          52.500  
R 3  23365461.940   125077166.492        3897.590          46.500    23365465.240    97282249.660        3032.312          45.500  
G 9                                                                                                                                
G27                                                                                                                                
G28                                                                                                                                
G14                                                                                                                                
G12                                                                                                                                
G 7                                                                                                                                
G26                                                                                                                                
> 2020  9 16 11 53  5.0000000  0 20       0.000000000000
G19                                                                                                                                
G 3  20417232.560   107293281.859         779.648          54.500    20417233.340    83605166.969         607.477          51.500  
G 4  22785011.700   119736051.586        3433.312          48.250    22785010.600    93300823.496        2674.527          45.750  
G11  21923722.400   115209941.242       -3344.684          51.250                                                                  
G22  20670897.780   108626299.398        -635.605          54.500                                                                  
G 1  20390619.100   107153419.750       -1260.117          55.250    20390619.920    83496197.836        -982.328          51.750  
G17  22624776.980   118894001.953        1855.988          49.500    22624776.340    92644686.965        1445.922          47.500  
R 1  20654601.800   110410718.668       -2996.270          49.250    20654608.300    85875005.809       -2334.195          44.750  
R18  22464581.900   119917507.824        3965.402          50.250    22464588.780    93269175.820        3083.969          49.750  
R24  20388012.020   109023913.734       -2967.973          53.750    20388019.300    84796372.809       -2308.199          53.000  
R23  23477869.280   125590814.258       -4351.508          44.250    23477879.500    97681747.418       -3383.926          41.500  
R17  19244608.320   102981816.488        1112.684          53.500    19244614.360    80096967.145         865.297          52.500  
R 3  23364734.180   125073265.930        3898.309          46.500    23364736.920    97279215.895        3031.832          45.500  
G 9                                                                                                                                
G27                                                                                                                                
G28                                                                                                                                
G14                                                                                                                                
G12                                                                                                                                
G 7                                                                                                                                
G26                                                                                                                                
> 2020  9 16 11 53  6.0000000  0 20       0.000000000000
G19                                                                                                                                
G 3  20417083.700   107292499.781         780.641          54.000    20417084.520    83604557.555         607.578          51.500  
G 4  22784358.060   119732617.055        3432.836          48.000    22784356.660    93298147.254        2673.320          46.000  
G11  21924358.300   115213283.461       -3344.398          50.750                                                                  
G22  20671018.280   108626932.758        -635.586          54.250                                                                  
G 1  20390858.460   107154677.977       -1261.785          54.750    20390859.460    83497178.273        -982.598          51.750  
G17  22624423.140   118892143.512        1855.254          49.000    22624422.680    92643238.820        1446.645          47.750  
R 1  20655162.180   110413714.086       -2999.141          49.250    20655168.420    85877335.574       -2332.164          44.500  
R18  22463838.680   119913540.125        3966.035          50.250    22463845.160    93266089.840        3084.430          49.500  
R24  20388566.700   109026879.676       -2968.621          53.750    20388573.940    84798679.652       -2307.711          52.750  
R23  23478682.920   125595163.191       -4351.168          44.500    23478692.880    97685129.926       -3383.930          41.500  
R17  19244400.140   102980702.160        1112.074          53.750    19244406.140    80096100.449         865.000          52.250  
R 3  23364006.100   125069365.836        3897.113          46.500    23364008.040    97276182.496        3031.738          45.000  
G 9                                                                                                                                
G27                                                                                                                                
G28                                                                                                                                
G14                                                                                                                                
G12                                                                                                                                
G 7                                                                                                                                
G26                                                                                                                                
> 2020  9 16 11 53  7.0000000  0 20       0.000000000000
G19                                                                                                                                
G 3  20416934.880   107291718.336         779.469          53.500    20416935.840    83603948.637         606.891          51.500  
G 4  22783704.560   119729183.047        3432.719          47.250    22783703.300    93295471.395        2675.461          46.000  
G11  21924994.340   115216626.266       -3344.832          50.250                                                                  
G22  20671138.940   108627566.680        -636.660          53.500                                                                  
G 1  20391097.940   107155936.902       -1260.883          54.000    20391099.040    83498159.258        -983.020          52.000  
G17  22624069.220   118890285.793        1855.961          48.250    22624069.060    92641791.250        1445.609          47.750  
R 1  20655722.660   110416710.094       -2999.270          49.000    20655728.640    85879665.812       -2332.664          44.750  
R18  22463095.740   119909572.883        3964.820          50.250    22463102.320    93263004.207        3083.625          49.500  
R24  20389121.800   109029846.449       -2969.340          54.000    20389129.000    84800987.145       -2309.965          52.750  
R23  23479496.500   125599512.523       -4350.031          44.500    23479506.240    97688512.746       -3383.707          41.750  
R17  19244192.140   102979588.836        1110.902          53.500    19244198.540    80095234.535         863.422          52.250  
R 3  23363277.640   125065466.160        3897.215          46.500    23363279.260    97273149.418        3033.105          45.000  
G 9                                                                                                                                
G27                                                                                                                                
G28                                                                                                                                
G14                                                                                                                                
G12                                                                                                                                
G 7                                                                                                                                
G26                                                                                                                                
> 2020  9 16 11 53  8.0000000  0 20       0.000000000000
G19                                                                                                                                
G 3  20416786.100   107290937.402         778.543          53.500    20416787.200    83603340.121         607.078          51.500  
G 4  22783050.980   119725749.391        3432.453          47.500    22783050.100    93292795.824        2673.012          46.000  
G11  21925630.640   115219969.527       -3346.340          50.000                                                                  
G22  20671259.760   108628201.066        -636.863          53.500                                                                  
G 1  20391337.480   107157196.406       -1261.223          54.000    20391338.840    83499140.691        -983.852          51.750  
G17  22623715.840   118888428.695        1856.023          48.250    22623715.820    92640344.156        1443.914          47.500  
R 1  20656282.980   110419706.578       -2998.438          49.250    20656289.220    85881996.395       -2332.992          44.750  
R18  22462352.920   119905605.984        3965.645          50.250    22462359.280    93259918.844        3083.523          49.750  
R24  20389676.800   109032813.898       -2970.070          54.000    20389684.040    84803295.168       -2309.938          53.000  
R23  23480309.420   125603862.148       -4352.180          44.500    23480318.760    97691895.777       -3385.473          41.750  
R17  19243984.220   102978476.414        1109.418          53.500    19243990.440    80094369.316         862.941          52.500  
R 3  23362549.640   125061566.836        3897.633          46.500    23362550.840    97270116.594        3030.645          45.250  
G 9                                                                                                                                
G27                                                                                                                                
G28                                                                                                                                
G14                                                                                                                                
G12                                                                                                                                
G 7                                                                                                                                
G26                                                                                                                                
> 2020  9 16 11 53  9.0000000  0 20       0.000000000000
G19                                                                                                                                
G 3  20416637.480   107290156.477         778.844          53.500    20416638.520    83602731.609         605.648          51.250  
G 4  22782397.640   119722315.598        3431.176          47.500    22782396.680    93290120.133        2674.707          46.000  
G11  21926266.820   115223312.730       -3345.395          50.250                                                                  
G22  20671380.440   108628835.391        -637.035          53.500                                                                  
G 1  20391577.160   107158455.980       -1262.176          54.000    20391578.440    83500122.172        -982.250          51.750  
G17  22623362.360   118886571.680        1853.711          48.250    22623362.480    92638897.137        1444.090          47.500  
R 1  20656843.660   110422703.000       -2999.191          49.250    20656850.020    85884326.957       -2331.895          44.500  
R18  22461609.740   119901638.863        3964.211          50.500    22461615.880    93256833.309        3083.867          49.750  
R24  20390231.800   109035781.492       -2970.270          54.000    20390239.100    84805603.285       -2310.871          53.000  
R23  23481122.640   125608211.512       -4351.023          45.000    23481132.240    97695278.625       -3383.926          42.000  
R17  19243776.760   102977364.336        1109.469          53.750    19243782.640    80093504.371         863.324          52.500  
R 3  23361821.300   125057667.277        3896.535          46.250    23361822.700    97267083.633        3032.785          45.000  
G 9                                                                                                                                
G27                                                                                                                                
G28                                                                                                                                
G14                                                                                                                                
G12                                                                                                                                
G 7                                                                                                                                
G26                                                                                                                                
> 2020  9 16 11 53 10.0000000  0 20       0.000000000000
G19                                                                                                                                
G 3  20416489.000   107289376.418         778.047          53.500    20416489.980    83602123.770         607.270          51.250  
G 4  22781744.680   119718882.512        3430.770          47.500    22781743.640    93287445.016        2672.570          46.250  
G11  21926903.300   115226656.746       -3346.152          50.250                                                                  
G22  20671501.240   108629470.512        -636.164          53.500                                                                  
G 1  20391816.960   107159716.465       -1262.867          54.000    20391818.240    83501104.371        -983.430          51.750  
G17  22623009.280   118884715.621        1854.156          48.500    22623009.540    92637450.863        1444.133          47.500  
R 1  20657404.400   110425700.238       -2998.246          49.250    20657410.660    85886658.141       -2330.652          44.500  
R18  22460866.900   119897672.410        3964.551          50.500    22460872.700    93253748.293        3084.434          49.750  
R24  20390787.100   109038750.102       -2971.402          54.250    20390794.460    84807912.199       -2311.129          53.000  
R23  23481936.500   125612561.504       -4353.078          45.000    23481946.140    97698661.957       -3384.902          41.750  
R17  19243569.500   102976253.480        1109.355          53.750    19243575.280    80092640.367         861.934          52.750  
R 3  23361092.780   125053768.406        3895.887          46.250    23361094.280    97264051.164        3031.715          45.000  
G 9                                                                                                                                
G27                                                                                                                                
G28                                                                                                                                
G14                                                                                                                                
G12                                                                                                                                
G 7                                                                                                                                
G26                                                                                                                                
> 2020  9 16 11 53 11.0000000  0 20       0.000000000000
G19                                                                                                                                
G 3  20416341.020   107288598.895         777.363          53.750    20416342.100    83601517.898         606.242          51.250  
G 4  22781091.760   119715451.828        3430.871          47.750    22781090.900    93284771.746        2671.930          46.250  
G11  21927540.040   115230003.238       -3347.043          50.000                                                                  
G22  20671622.580   108630108.113        -637.492          53.750                                                                  
G 1  20392057.260   107160979.551       -1263.527          54.250    20392058.680    83502088.594        -983.930          52.000  
G17  22622656.460   118882862.203        1853.891          48.500    22622656.800    92636006.637        1443.727          47.500  
R 1  20657965.720   110428699.996       -3000.652          49.500    20657971.080    85888991.285       -2333.777          44.750  
R18  22460124.400   119893708.320        3963.395          50.250    22460129.940    93250665.113        3083.328          49.750  
R24  20391342.960   109041721.480       -2971.750          54.500    20391349.940    84810223.281       -2311.195          53.000  
R23  23482749.200   125616913.805       -4352.590          45.000    23482758.560    97702047.082       -3384.973          42.250  
R17  19243362.500   102975145.570        1107.531          54.000    19243368.180    80091778.656         861.145          52.500  
R 3  23360364.700   125049871.887        3896.738          46.250    23360366.220    97261020.527        3030.465          45.000  
G 9                                                                                                                                
G27                                                                                                                                
G28                                                                                                                                
G14                                                                                                                                
G12                                                                                                                                
G 7                                                                                                                                
G26                                                                                                                                
> 2020  9 16 11 53 12.0000000  0 20       0.000000000000
G19                                                                                                                                
G 3  20416192.740   107287819.453         777.090          53.750    20416193.620    83600910.547         605.480          51.500  
G 4  22780438.660   119712019.082        3429.816          48.000    22780437.780    93282096.879        2672.598          46.500  
G11  21928176.460   115233347.758       -3345.922          50.250                                                                  
G22  20671743.480   108630743.734        -638.367          53.750                                                                  
G 1  20392297.200   107162240.789       -1263.922          54.250    20392298.660    83503071.383        -984.539          52.250  
G17  22622303.440   118881006.957        1852.828          48.750    22622303.880    92634560.992        1444.102          47.500  
R 1  20658526.980   110431697.738       -3000.914          49.500    20658533.020    85891322.859       -2332.934          44.750  
R18  22459381.420   119889742.094        3963.496          50.500    22459386.600    93247580.266        3082.754          49.750  
R24  20391898.820   109044691.121       -2972.746          54.500    20391905.140    84812533.000       -2312.512          52.750  
R23  23483562.500   125621263.914       -4353.484          44.750    23483571.520    97705430.500       -3386.438          42.000  
R17  19243155.620   102974036.043        1106.723          54.000    19243160.840    80090915.691         859.641          52.500  
R 3  23359635.760   125045973.211        3896.070          46.250    23359637.860    97257988.230        3030.242          44.750  
G 9                                                                                                                                
